{
 "version": "61898d8c6926",
 "generatedAt": "2026-07-02T01:05:10.510Z",
 "source": "NOAA CO-OPS MDAPI",
 "count": 3572,
 "stations": [
  {
   "id": "1610367",
   "name": "Nonopapa, Niihau Island",
   "state": "HI",
   "lat": 21.87,
   "lon": -160.235,
   "tz": "Pacific/Honolulu",
   "products": [
    "predictions"
   ],
   "predType": "S",
   "refId": "1612340"
  },
  {
   "id": "1611347",
   "name": "Port Allen, Hanapepe Bay",
   "state": "HI",
   "lat": 21.9033,
   "lon": -159.592,
   "tz": "Pacific/Honolulu",
   "products": [
    "predictions"
   ],
   "predType": "R",
   "refId": null
  },
  {
   "id": "1611400",
   "name": "NAWILIWILI",
   "state": "HI",
   "lat": 21.9544,
   "lon": -159.3561,
   "tz": "Pacific/Honolulu",
   "products": [
    "predictions",
    "water_level",
    "water_temperature",
    "wind",
    "air_temperature",
    "air_pressure"
   ],
   "predType": "R",
   "refId": null
  },
  {
   "id": "1611401",
   "name": "Waimea Bay",
   "state": "HI",
   "lat": 21.9567,
   "lon": -159.673,
   "tz": "Pacific/Honolulu",
   "products": [
    "predictions"
   ],
   "predType": "S",
   "refId": "1611400"
  },
  {
   "id": "1611443",
   "name": "Hanamaulu Bay",
   "state": "HI",
   "lat": 21.995,
   "lon": -159.335,
   "tz": "Pacific/Honolulu",
   "products": [
    "predictions"
   ],
   "predType": "S",
   "refId": "1611400"
  },
  {
   "id": "1611683",
   "name": "Hanalei Bay",
   "state": "HI",
   "lat": 22.215,
   "lon": -159.502,
   "tz": "Pacific/Honolulu",
   "products": [
    "predictions"
   ],
   "predType": "S",
   "refId": "1611400"
  },
  {
   "id": "1612301",
   "name": "Hanauma Bay",
   "state": "HI",
   "lat": 21.275,
   "lon": -157.697,
   "tz": "Pacific/Honolulu",
   "products": [
    "predictions"
   ],
   "predType": "S",
   "refId": "1612340"
  },
  {
   "id": "1612340",
   "name": "HONOLULU",
   "state": "HI",
   "lat": 21.30333,
   "lon": -157.86453,
   "tz": "Pacific/Honolulu",
   "products": [
    "predictions",
    "water_level",
    "water_temperature",
    "wind",
    "air_temperature",
    "air_pressure"
   ],
   "predType": "R",
   "refId": null
  },
  {
   "id": "1612366",
   "name": "Pearl Harbor Entrance, Bishop Point",
   "state": "HI",
   "lat": 21.33,
   "lon": -157.967,
   "tz": "Pacific/Honolulu",
   "products": [
    "predictions"
   ],
   "predType": "R",
   "refId": null
  },
  {
   "id": "1612376",
   "name": "Waimanalo",
   "state": "HI",
   "lat": 21.335,
   "lon": -157.693,
   "tz": "Pacific/Honolulu",
   "products": [
    "predictions"
   ],
   "predType": "S",
   "refId": "1612480"
  },
  {
   "id": "1612401",
   "name": "Ford Island, Pearl Harbor",
   "state": "HI",
   "lat": 21.3675,
   "lon": -157.9639,
   "tz": "Pacific/Honolulu",
   "products": [
    "predictions",
    "water_level",
    "wind",
    "air_temperature",
    "air_pressure"
   ],
   "predType": "R",
   "refId": null
  },
  {
   "id": "1612404",
   "name": "Pearl Harbor, Ford Island Ferry",
   "state": "HI",
   "lat": 21.3683,
   "lon": -157.94,
   "tz": "Pacific/Honolulu",
   "products": [
    "predictions"
   ],
   "predType": "R",
   "refId": null
  },
  {
   "id": "1612480",
   "name": "MOKU O LOE",
   "state": "HI",
   "lat": 21.43306,
   "lon": -157.79,
   "tz": "Pacific/Honolulu",
   "products": [
    "predictions",
    "water_level",
    "water_temperature",
    "wind",
    "air_temperature",
    "air_pressure"
   ],
   "predType": "R",
   "refId": null
  },
  {
   "id": "1612482",
   "name": "Waianae",
   "state": "HI",
   "lat": 21.445,
   "lon": -158.192,
   "tz": "Pacific/Honolulu",
   "products": [
    "predictions"
   ],
   "predType": "S",
   "refId": "1612340"
  },
  {
   "id": "1612668",
   "name": "Haleiwa, Waialua Bay",
   "state": "HI",
   "lat": 21.5983,
   "lon": -158.108,
   "tz": "Pacific/Honolulu",
   "products": [
    "predictions"
   ],
   "predType": "S",
   "refId": "1612340"
  },
  {
   "id": "1613077",
   "name": "Kamalo Harbor",
   "state": "HI",
   "lat": 21.0483,
   "lon": -156.877,
   "tz": "Pacific/Honolulu",
   "products": [
    "predictions"
   ],
   "predType": "S",
   "refId": "1612340"
  },
  {
   "id": "1613155",
   "name": "Pukoo Harbor",
   "state": "HI",
   "lat": 21.0717,
   "lon": -156.8,
   "tz": "Pacific/Honolulu",
   "products": [
    "predictions"
   ],
   "predType": "S",
   "refId": "1612340"
  },
  {
   "id": "1613198",
   "name": "Kaunakakai",
   "state": "HI",
   "lat": 21.085,
   "lon": -157.032,
   "tz": "Pacific/Honolulu",
   "products": [
    "predictions"
   ],
   "predType": "R",
   "refId": null
  },
  {
   "id": "1613226",
   "name": "Kolo",
   "state": "HI",
   "lat": 21.0933,
   "lon": -157.197,
   "tz": "Pacific/Honolulu",
   "products": [
    "predictions"
   ],
   "predType": "S",
   "refId": "1612340"
  },
  {
   "id": "1614465",
   "name": "Kaumalapau, Lanai Island",
   "state": "HI",
   "lat": 20.79,
   "lon": -156.995,
   "tz": "Pacific/Honolulu",
   "products": [
    "predictions"
   ],
   "predType": "S",
   "refId": "1612340"
  },
  {
   "id": "1615202",
   "name": "Makena",
   "state": "HI",
   "lat": 20.6567,
   "lon": -156.445,
   "tz": "Pacific/Honolulu",
   "products": [
    "predictions"
   ],
   "predType": "S",
   "refId": "1615680"
  },
  {
   "id": "1615395",
   "name": "Hana",
   "state": "HI",
   "lat": 20.7617,
   "lon": -155.987,
   "tz": "Pacific/Honolulu",
   "products": [
    "predictions"
   ],
   "predType": "S",
   "refId": "1615680"
  },
  {
   "id": "1615680",
   "name": "KAHULUI",
   "state": "HI",
   "lat": 20.89494,
   "lon": -156.469,
   "tz": "Pacific/Honolulu",
   "products": [
    "predictions",
    "water_level",
    "water_temperature",
    "wind",
    "air_temperature",
    "air_pressure"
   ],
   "predType": "R",
   "refId": null
  },
  {
   "id": "1616696",
   "name": "Kuheia Bay",
   "state": "HI",
   "lat": 20.595,
   "lon": -156.607,
   "tz": "Pacific/Honolulu",
   "products": [
    "predictions"
   ],
   "predType": "S",
   "refId": "1612340"
  },
  {
   "id": "1617277",
   "name": "Mahukona",
   "state": "HI",
   "lat": 20.1867,
   "lon": -155.903,
   "tz": "Pacific/Honolulu",
   "products": [
    "predictions"
   ],
   "predType": "S",
   "refId": "1617760"
  },
  {
   "id": "1617433",
   "name": "Kawaihae",
   "state": "HI",
   "lat": 20.0366,
   "lon": -155.8294,
   "tz": "Pacific/Honolulu",
   "products": [
    "predictions",
    "water_level",
    "water_temperature",
    "wind",
    "air_temperature",
    "air_pressure"
   ],
   "predType": "R",
   "refId": null
  },
  {
   "id": "1617760",
   "name": "HILO",
   "state": "HI",
   "lat": 19.73028,
   "lon": -155.05556,
   "tz": "Pacific/Honolulu",
   "products": [
    "predictions",
    "water_level",
    "water_temperature",
    "wind",
    "air_temperature",
    "air_pressure"
   ],
   "predType": "R",
   "refId": null
  },
  {
   "id": "1617846",
   "name": "Kailua Kona",
   "state": "HI",
   "lat": 19.6433,
   "lon": -156,
   "tz": "Pacific/Honolulu",
   "products": [
    "predictions"
   ],
   "predType": "S",
   "refId": "1617760"
  },
  {
   "id": "1618021",
   "name": "Napoopoo, Kealakekua Bay",
   "state": "HI",
   "lat": 19.4767,
   "lon": -155.922,
   "tz": "Pacific/Honolulu",
   "products": [
    "predictions"
   ],
   "predType": "S",
   "refId": "1617760"
  },
  {
   "id": "1618578",
   "name": "Honuapo",
   "state": "HI",
   "lat": 19.0883,
   "lon": -155.553,
   "tz": "Pacific/Honolulu",
   "products": [
    "predictions"
   ],
   "predType": "S",
   "refId": "1617760"
  },
  {
   "id": "1619000",
   "name": "JOHNSTON ATOLL",
   "state": "",
   "lat": 16.7383,
   "lon": -169.53,
   "tz": "Pacific/Honolulu",
   "products": [
    "predictions"
   ],
   "predType": "R",
   "refId": null
  },
  {
   "id": "1619222",
   "name": "East Island, French Frigate Shoals",
   "state": "HI",
   "lat": 23.7833,
   "lon": -166.20799,
   "tz": "Pacific/Honolulu",
   "products": [
    "predictions"
   ],
   "predType": "S",
   "refId": "1612340"
  },
  {
   "id": "1619645",
   "name": "Laysan Island",
   "state": "HI",
   "lat": 25.7667,
   "lon": -171.75,
   "tz": "Pacific/Honolulu",
   "products": [
    "predictions"
   ],
   "predType": "S",
   "refId": "1612340"
  },
  {
   "id": "1619910",
   "name": "SAND ISLAND, MIDWAY ISLANDS",
   "state": "",
   "lat": 28.21167,
   "lon": -177.36,
   "tz": "Pacific/Midway",
   "products": [
    "predictions",
    "water_level",
    "water_temperature",
    "wind",
    "air_temperature",
    "air_pressure"
   ],
   "predType": "R",
   "refId": null
  },
  {
   "id": "1630000",
   "name": "APRA HARBOR, GUAM",
   "state": "",
   "lat": 13.44339,
   "lon": 144.65636,
   "tz": "Pacific/Guam",
   "products": [
    "predictions",
    "water_level",
    "water_temperature",
    "wind",
    "air_temperature",
    "air_pressure"
   ],
   "predType": "R",
   "refId": null
  },
  {
   "id": "1631428",
   "name": "Pago Bay, Guam",
   "state": "",
   "lat": 13.42833,
   "lon": 144.79889,
   "tz": "Pacific/Guam",
   "products": [
    "predictions",
    "water_level",
    "wind",
    "air_temperature",
    "air_pressure"
   ],
   "predType": "R",
   "refId": null
  },
  {
   "id": "1633227",
   "name": "Tanapag Harbor, Saipan Island",
   "state": "GU",
   "lat": 15.2267,
   "lon": 145.737,
   "tz": "Pacific/Saipan",
   "products": [
    "predictions"
   ],
   "predType": "R",
   "refId": null
  },
  {
   "id": "1732417",
   "name": "Papeete Harbor, Fare Ute Point",
   "state": "",
   "lat": -17.535,
   "lon": -149.572,
   "tz": "Pacific/Tahiti",
   "products": [
    "predictions"
   ],
   "predType": "R",
   "refId": null
  },
  {
   "id": "1770000",
   "name": "PAGO PAGO Harbor, Tutuila Island",
   "state": "",
   "lat": -14.28,
   "lon": -170.69,
   "tz": "Pacific/Apia",
   "products": [
    "predictions",
    "water_level",
    "water_temperature",
    "wind",
    "air_temperature",
    "air_pressure"
   ],
   "predType": "R",
   "refId": null
  },
  {
   "id": "1778000",
   "name": "APIA (Observatory), Upolu Island",
   "state": "AS",
   "lat": -13.8083,
   "lon": -171.767,
   "tz": "Pacific/Apia",
   "products": [
    "predictions"
   ],
   "predType": "R",
   "refId": null
  },
  {
   "id": "1814060",
   "name": "Christmas Island",
   "state": "",
   "lat": 1.985,
   "lon": -157.47701,
   "tz": "Pacific/Kiritimati",
   "products": [
    "predictions"
   ],
   "predType": "S",
   "refId": "1612340"
  },
  {
   "id": "1820000",
   "name": "KWAJALEIN ATOLL (Kwajalein I.)",
   "state": "",
   "lat": 8.73167,
   "lon": 167.73611,
   "tz": "Pacific/Kwajalein",
   "products": [
    "predictions",
    "water_level",
    "water_temperature",
    "wind",
    "air_temperature",
    "air_pressure"
   ],
   "predType": "R",
   "refId": null
  },
  {
   "id": "1840000",
   "name": "CHUUK, Moen Island",
   "state": "FM",
   "lat": 7.44667,
   "lon": 151.847,
   "tz": "Pacific/Chuuk",
   "products": [
    "predictions"
   ],
   "predType": "R",
   "refId": null
  },
  {
   "id": "1841275",
   "name": "MALAKAL HARBOR",
   "state": "",
   "lat": 7.33,
   "lon": 134.463,
   "tz": "Pacific/Palau",
   "products": [
    "predictions"
   ],
   "predType": "S",
   "refId": null
  },
  {
   "id": "1841281",
   "name": "Koror",
   "state": "",
   "lat": 7.35,
   "lon": 134.483,
   "tz": "Pacific/Palau",
   "products": [
    "predictions"
   ],
   "predType": "S",
   "refId": "1841367"
  },
  {
   "id": "1841367",
   "name": "Malakal Harbor, Palau Island",
   "state": "FM",
   "lat": 7.3333,
   "lon": 134.46671,
   "tz": "Pacific/Palau",
   "products": [
    "predictions"
   ],
   "predType": "R",
   "refId": null
  },
  {
   "id": "1890000",
   "name": "WAKE ISLAND (U.S.)",
   "state": "",
   "lat": 19.29056,
   "lon": 166.6175,
   "tz": "Pacific/Wake",
   "products": [
    "predictions",
    "water_level",
    "water_temperature",
    "wind",
    "air_temperature",
    "air_pressure"
   ],
   "predType": "R",
   "refId": null
  },
  {
   "id": "1910000",
   "name": "SUVA HARBOR, Viti Levu Island",
   "state": "",
   "lat": -18.1333,
   "lon": 178.425,
   "tz": "Pacific/Fiji",
   "products": [
    "predictions"
   ],
   "predType": "R",
   "refId": null
  },
  {
   "id": "2431000",
   "name": "Diego Garcia",
   "state": "",
   "lat": -7.29,
   "lon": 72.3933,
   "tz": "Indian/Chagos",
   "products": [
    "predictions"
   ],
   "predType": "R",
   "refId": null
  },
  {
   "id": "2695535",
   "name": "Ferry Reach (Biological Station)",
   "state": "",
   "lat": 32.37022,
   "lon": -64.69572,
   "tz": "Atlantic/Bermuda",
   "products": [
    "predictions",
    "water_level",
    "water_temperature",
    "wind",
    "air_temperature",
    "air_pressure"
   ],
   "predType": "R",
   "refId": null
  },
  {
   "id": "2695540",
   "name": "St. Georges Island",
   "state": "",
   "lat": 32.3734,
   "lon": -64.7033,
   "tz": "Atlantic/Bermuda",
   "products": [
    "predictions",
    "water_level",
    "water_temperature",
    "wind",
    "air_temperature",
    "air_pressure"
   ],
   "predType": "R",
   "refId": null
  },
  {
   "id": "6835001",
   "name": "Djakarta, Java",
   "state": "",
   "lat": -2.20167,
   "lon": 106.86667,
   "tz": "Asia/Jakarta",
   "products": [
    "predictions"
   ],
   "predType": "R",
   "refId": null
  },
  {
   "id": "8218361",
   "name": "Kumeon Bay, B.C.",
   "state": "",
   "lat": 54.71667,
   "lon": -130.21667,
   "tz": "America/Vancouver",
   "products": [
    "predictions"
   ],
   "predType": "S",
   "refId": "9450460"
  },
  {
   "id": "8218362",
   "name": "Haystack Island, B.C.",
   "state": "",
   "lat": 54.71667,
   "lon": -130.61667,
   "tz": "America/Vancouver",
   "products": [
    "predictions"
   ],
   "predType": "S",
   "refId": "9450460"
  },
  {
   "id": "8218447",
   "name": "Wales Island (Cannery), Pearse Canal",
   "state": "",
   "lat": 54.76667,
   "lon": -130.55,
   "tz": "America/Vancouver",
   "products": [
    "predictions"
   ],
   "predType": "S",
   "refId": "9450460"
  },
  {
   "id": "8218617",
   "name": "Mill Bay, Nass River, B.C.",
   "state": "",
   "lat": 55,
   "lon": -129.9,
   "tz": "America/Vancouver",
   "products": [
    "predictions"
   ],
   "predType": "S",
   "refId": "9450460"
  },
  {
   "id": "8311030",
   "name": "Ogdensburg",
   "state": "NY",
   "lat": 44.70278,
   "lon": -75.49445,
   "tz": "America/Toronto",
   "products": [
    "water_level",
    "water_temperature",
    "wind",
    "air_temperature",
    "air_pressure"
   ],
   "predType": null,
   "refId": null
  },
  {
   "id": "8311062",
   "name": "Alexandria Bay",
   "state": "NY",
   "lat": 44.33111,
   "lon": -75.93452,
   "tz": "America/New_York",
   "products": [
    "water_level",
    "water_temperature",
    "wind",
    "air_temperature",
    "air_pressure"
   ],
   "predType": null,
   "refId": null
  },
  {
   "id": "8410140",
   "name": "EASTPORT",
   "state": "ME",
   "lat": 44.90461,
   "lon": -66.98289,
   "tz": "America/Moncton",
   "products": [
    "predictions",
    "water_level",
    "water_temperature",
    "wind",
    "air_temperature",
    "air_pressure"
   ],
   "predType": "R",
   "refId": null
  },
  {
   "id": "8410714",
   "name": "Coffins Point",
   "state": "ME",
   "lat": 44.87,
   "lon": -67.1083,
   "tz": "America/New_York",
   "products": [
    "predictions"
   ],
   "predType": "R",
   "refId": null
  },
  {
   "id": "8410715",
   "name": "Garnet Point, Pennamquan River",
   "state": "ME",
   "lat": 44.9233,
   "lon": -67.13,
   "tz": "America/New_York",
   "products": [
    "predictions"
   ],
   "predType": "R",
   "refId": null
  },
  {
   "id": "8410834",
   "name": "Pettegrove Point, Dochet Island",
   "state": "ME",
   "lat": 45.12844,
   "lon": -67.14467,
   "tz": "America/Moncton",
   "products": [
    "predictions"
   ],
   "predType": "R",
   "refId": null
  },
  {
   "id": "8410864",
   "name": "Gravelly Point, Whiting Bay",
   "state": "ME",
   "lat": 44.8233,
   "lon": -67.1517,
   "tz": "America/New_York",
   "products": [
    "predictions"
   ],
   "predType": "R",
   "refId": null
  },
  {
   "id": "8410875",
   "name": "Birch Islands",
   "state": "ME",
   "lat": 44.875,
   "lon": -67.1583,
   "tz": "America/New_York",
   "products": [
    "predictions"
   ],
   "predType": "S",
   "refId": "8410140"
  },
  {
   "id": "8411060",
   "name": "Cutler, Little River",
   "state": "ME",
   "lat": 44.6567,
   "lon": -67.21,
   "tz": "America/New_York",
   "products": [
    "predictions",
    "water_level",
    "water_temperature",
    "wind",
    "air_temperature",
    "air_pressure"
   ],
   "predType": "R",
   "refId": null
  },
  {
   "id": "8411250",
   "name": "Cutler, Naval Radio Station",
   "state": "ME",
   "lat": 44.6417,
   "lon": -67.2967,
   "tz": "America/New_York",
   "products": [
    "predictions"
   ],
   "predType": "R",
   "refId": null
  },
  {
   "id": "8411411",
   "name": "Stone Island, Machias Bay",
   "state": "ME",
   "lat": 44.6033,
   "lon": -67.3683,
   "tz": "America/New_York",
   "products": [
    "predictions"
   ],
   "predType": "S",
   "refId": "8410140"
  },
  {
   "id": "8411467",
   "name": "Machiasport, Machias River",
   "state": "ME",
   "lat": 44.6983,
   "lon": -67.3933,
   "tz": "America/New_York",
   "products": [
    "predictions"
   ],
   "predType": "S",
   "refId": "8410140"
  },
  {
   "id": "8411696",
   "name": "Shoppee Point, Englishman Bay",
   "state": "ME",
   "lat": 44.615,
   "lon": -67.4967,
   "tz": "America/New_York",
   "products": [
    "predictions"
   ],
   "predType": "S",
   "refId": "8410140"
  },
  {
   "id": "8411801",
   "name": "Steele Harbor Island",
   "state": "ME",
   "lat": 44.4933,
   "lon": -67.5433,
   "tz": "America/New_York",
   "products": [
    "predictions"
   ],
   "predType": "S",
   "refId": "8418150"
  },
  {
   "id": "8412568",
   "name": "Green Island, Petit Manan Bar",
   "state": "ME",
   "lat": 44.3717,
   "lon": -67.87,
   "tz": "America/New_York",
   "products": [
    "predictions"
   ],
   "predType": "S",
   "refId": "8418150"
  },
  {
   "id": "8412581",
   "name": "Millbridge, Narraguagus River, Maine",
   "state": "ME",
   "lat": 44.54,
   "lon": -67.875,
   "tz": "America/New_York",
   "products": [
    "predictions"
   ],
   "predType": "R",
   "refId": null
  },
  {
   "id": "8412932",
   "name": "Prospect Harbor",
   "state": "ME",
   "lat": 44.4,
   "lon": -68.0217,
   "tz": "America/New_York",
   "products": [
    "predictions"
   ],
   "predType": "S",
   "refId": "8418150"
  },
  {
   "id": "8413079",
   "name": "Winter Harbor, Frenchman Bay",
   "state": "ME",
   "lat": 44.3883,
   "lon": -68.0867,
   "tz": "America/New_York",
   "products": [
    "predictions"
   ],
   "predType": "S",
   "refId": "8413320"
  },
  {
   "id": "8413320",
   "name": "BAR HARBOR",
   "state": "ME",
   "lat": 44.39219,
   "lon": -68.20428,
   "tz": "America/New_York",
   "products": [
    "predictions",
    "water_level",
    "water_temperature",
    "wind",
    "air_temperature",
    "air_pressure"
   ],
   "predType": "R",
   "refId": null
  },
  {
   "id": "8413564",
   "name": "Southwest Harbor",
   "state": "ME",
   "lat": 44.275,
   "lon": -68.3133,
   "tz": "America/New_York",
   "products": [
    "predictions"
   ],
   "predType": "S",
   "refId": "8413320"
  },
  {
   "id": "8413651",
   "name": "Bass Harbor",
   "state": "ME",
   "lat": 44.2417,
   "lon": -68.3533,
   "tz": "America/New_York",
   "products": [
    "predictions"
   ],
   "predType": "S",
   "refId": "8413320"
  },
  {
   "id": "8413801",
   "name": "Ellsworth, Union River",
   "state": "ME",
   "lat": 44.535,
   "lon": -68.4217,
   "tz": "America/New_York",
   "products": [
    "predictions"
   ],
   "predType": "R",
   "refId": null
  },
  {
   "id": "8413825",
   "name": "Mackerel Cove, Swans Island",
   "state": "ME",
   "lat": 44.17,
   "lon": -68.435,
   "tz": "America/New_York",
   "products": [
    "predictions"
   ],
   "predType": "R",
   "refId": null
  },
  {
   "id": "8413857",
   "name": "Burnt Coat Harbor, Swans Island",
   "state": "ME",
   "lat": 44.145,
   "lon": -68.45,
   "tz": "America/New_York",
   "products": [
    "predictions"
   ],
   "predType": "S",
   "refId": "8413320"
  },
  {
   "id": "8414112",
   "name": "Blue Hill Harbor",
   "state": "ME",
   "lat": 44.4083,
   "lon": -68.5633,
   "tz": "America/New_York",
   "products": [
    "predictions"
   ],
   "predType": "S",
   "refId": "8413320"
  },
  {
   "id": "8414168",
   "name": "Center Harbor",
   "state": "ME",
   "lat": 44.2633,
   "lon": -68.5867,
   "tz": "America/New_York",
   "products": [
    "predictions"
   ],
   "predType": "S",
   "refId": "8413320"
  },
  {
   "id": "8414249",
   "name": "Oceanville, Deer Isle",
   "state": "ME",
   "lat": 44.19231,
   "lon": -68.62093,
   "tz": "America/New_York",
   "products": [
    "predictions"
   ],
   "predType": "R",
   "refId": null
  },
  {
   "id": "8414288",
   "name": "Isle Au Haut",
   "state": "ME",
   "lat": 44.0733,
   "lon": -68.6367,
   "tz": "America/New_York",
   "products": [
    "predictions"
   ],
   "predType": "S",
   "refId": "8413320"
  },
  {
   "id": "8414348",
   "name": "Stonington, Deer Isle",
   "state": "ME",
   "lat": 44.1533,
   "lon": -68.6617,
   "tz": "America/New_York",
   "products": [
    "predictions"
   ],
   "predType": "S",
   "refId": "8413320"
  },
  {
   "id": "8414424",
   "name": "Little Deer Isle",
   "state": "ME",
   "lat": 44.2917,
   "lon": -68.6933,
   "tz": "America/New_York",
   "products": [
    "predictions"
   ],
   "predType": "S",
   "refId": "8413320"
  },
  {
   "id": "8414581",
   "name": "Gross Point, Eastern Channel",
   "state": "ME",
   "lat": 44.5367,
   "lon": -68.7583,
   "tz": "America/New_York",
   "products": [
    "predictions"
   ],
   "predType": "S",
   "refId": "8413320"
  },
  {
   "id": "8414612",
   "name": "Bangor",
   "state": "ME",
   "lat": 44.785,
   "lon": -68.7667,
   "tz": "America/New_York",
   "products": [
    "predictions"
   ],
   "predType": "R",
   "refId": null
  },
  {
   "id": "8414672",
   "name": "Castine",
   "state": "ME",
   "lat": 44.3867,
   "lon": -68.7967,
   "tz": "America/New_York",
   "products": [
    "predictions"
   ],
   "predType": "S",
   "refId": "8413320"
  },
  {
   "id": "8414684",
   "name": "Bucksport",
   "state": "ME",
   "lat": 44.5717,
   "lon": -68.8017,
   "tz": "America/New_York",
   "products": [
    "predictions"
   ],
   "predType": "S",
   "refId": "8413320"
  },
  {
   "id": "8414692",
   "name": "Sandy Point",
   "state": "ME",
   "lat": 44.505,
   "lon": -68.805,
   "tz": "America/New_York",
   "products": [
    "predictions"
   ],
   "predType": "S",
   "refId": "8413320"
  },
  {
   "id": "8414721",
   "name": "Fort Point, Penobscot River",
   "state": "ME",
   "lat": 44.4717,
   "lon": -68.8133,
   "tz": "America/New_York",
   "products": [
    "predictions"
   ],
   "predType": "R",
   "refId": null
  },
  {
   "id": "8414776",
   "name": "Vinalhaven, Vinalhaven Island",
   "state": "ME",
   "lat": 44.0433,
   "lon": -68.84,
   "tz": "America/New_York",
   "products": [
    "predictions"
   ],
   "predType": "S",
   "refId": "8413320"
  },
  {
   "id": "8414781",
   "name": "Winterport",
   "state": "ME",
   "lat": 44.6367,
   "lon": -68.8417,
   "tz": "America/New_York",
   "products": [
    "predictions"
   ],
   "predType": "R",
   "refId": null
  },
  {
   "id": "8414856",
   "name": "North Haven",
   "state": "ME",
   "lat": 44.1267,
   "lon": -68.8733,
   "tz": "America/New_York",
   "products": [
    "predictions"
   ],
   "predType": "S",
   "refId": "8413320"
  },
  {
   "id": "8414876",
   "name": "Matinicus Harbor, Wheaton Island",
   "state": "ME",
   "lat": 43.8617,
   "lon": -68.8817,
   "tz": "America/New_York",
   "products": [
    "predictions"
   ],
   "predType": "S",
   "refId": "8413320"
  },
  {
   "id": "8414888",
   "name": "Pulpit Harbor, North Haven Island",
   "state": "ME",
   "lat": 44.1567,
   "lon": -68.8867,
   "tz": "America/New_York",
   "products": [
    "predictions"
   ],
   "predType": "R",
   "refId": null
  },
  {
   "id": "8415191",
   "name": "Belfast",
   "state": "ME",
   "lat": 44.4267,
   "lon": -69.005,
   "tz": "America/New_York",
   "products": [
    "predictions"
   ],
   "predType": "S",
   "refId": "8413320"
  },
  {
   "id": "8415490",
   "name": "Rockland",
   "state": "ME",
   "lat": 44.105,
   "lon": -69.1017,
   "tz": "America/New_York",
   "products": [
    "predictions"
   ],
   "predType": "R",
   "refId": null
  },
  {
   "id": "8415709",
   "name": "Thomaston",
   "state": "ME",
   "lat": 44.0717,
   "lon": -69.1817,
   "tz": "America/New_York",
   "products": [
    "predictions"
   ],
   "predType": "R",
   "refId": null
  },
  {
   "id": "8415809",
   "name": "Tenants Harbor",
   "state": "ME",
   "lat": 43.965,
   "lon": -69.2167,
   "tz": "America/New_York",
   "products": [
    "predictions"
   ],
   "predType": "S",
   "refId": "8418150"
  },
  {
   "id": "8415867",
   "name": "Otis Cove",
   "state": "ME",
   "lat": 43.9867,
   "lon": -69.2367,
   "tz": "America/New_York",
   "products": [
    "predictions"
   ],
   "predType": "S",
   "refId": "8418150"
  },
  {
   "id": "8415933",
   "name": "Port Clyde",
   "state": "ME",
   "lat": 43.925,
   "lon": -69.26,
   "tz": "America/New_York",
   "products": [
    "predictions"
   ],
   "predType": "S",
   "refId": "8418150"
  },
  {
   "id": "8416028",
   "name": "Burnt Island, Georges Islands",
   "state": "ME",
   "lat": 43.8717,
   "lon": -69.295,
   "tz": "America/New_York",
   "products": [
    "predictions"
   ],
   "predType": "S",
   "refId": "8418150"
  },
  {
   "id": "8416092",
   "name": "Monhegan Island",
   "state": "ME",
   "lat": 43.765,
   "lon": -69.3217,
   "tz": "America/New_York",
   "products": [
    "predictions"
   ],
   "predType": "S",
   "refId": "8418150"
  },
  {
   "id": "8416141",
   "name": "Friendship Harbor",
   "state": "ME",
   "lat": 43.97,
   "lon": -69.3417,
   "tz": "America/New_York",
   "products": [
    "predictions"
   ],
   "predType": "S",
   "refId": "8418150"
  },
  {
   "id": "8416224",
   "name": "Waldoboro",
   "state": "ME",
   "lat": 44.0933,
   "lon": -69.3767,
   "tz": "America/New_York",
   "products": [
    "predictions"
   ],
   "predType": "S",
   "refId": "8418150"
  },
  {
   "id": "8416232",
   "name": "Jones Neck",
   "state": "ME",
   "lat": 44.015,
   "lon": -69.38,
   "tz": "America/New_York",
   "products": [
    "predictions"
   ],
   "predType": "S",
   "refId": "8418150"
  },
  {
   "id": "8416381",
   "name": "Muscongus Harbor, Muscongus Sound",
   "state": "ME",
   "lat": 43.9667,
   "lon": -69.4417,
   "tz": "America/New_York",
   "products": [
    "predictions"
   ],
   "predType": "S",
   "refId": "8418150"
  },
  {
   "id": "8416501",
   "name": "New Harbor, Muscongus Bay",
   "state": "ME",
   "lat": 43.875,
   "lon": -69.4917,
   "tz": "America/New_York",
   "products": [
    "predictions"
   ],
   "predType": "S",
   "refId": "8418150"
  },
  {
   "id": "8416581",
   "name": "Pemaquid Harbor, Johns Bay",
   "state": "ME",
   "lat": 43.8767,
   "lon": -69.525,
   "tz": "America/New_York",
   "products": [
    "predictions"
   ],
   "predType": "S",
   "refId": "8418150"
  },
  {
   "id": "8416608",
   "name": "Newcastle",
   "state": "ME",
   "lat": 44.0333,
   "lon": -69.5367,
   "tz": "America/New_York",
   "products": [
    "predictions"
   ],
   "predType": "S",
   "refId": "8418150"
  },
  {
   "id": "8416721",
   "name": "East Boothbay",
   "state": "ME",
   "lat": 43.865,
   "lon": -69.5833,
   "tz": "America/New_York",
   "products": [
    "predictions"
   ],
   "predType": "S",
   "refId": "8418150"
  },
  {
   "id": "8416731",
   "name": "Walpole",
   "state": "ME",
   "lat": 43.9333,
   "lon": -69.58,
   "tz": "America/New_York",
   "products": [
    "predictions"
   ],
   "predType": "R",
   "refId": null
  },
  {
   "id": "8416796",
   "name": "Damariscove Harbor, Damariscove Island",
   "state": "ME",
   "lat": 43.7583,
   "lon": -69.615,
   "tz": "America/New_York",
   "products": [
    "predictions"
   ],
   "predType": "S",
   "refId": "8418150"
  },
  {
   "id": "8416804",
   "name": "Sheepscot (below rapids)",
   "state": "ME",
   "lat": 44.05,
   "lon": -69.6183,
   "tz": "America/New_York",
   "products": [
    "predictions"
   ],
   "predType": "S",
   "refId": "8418150"
  },
  {
   "id": "8416828",
   "name": "Boothbay Harbor",
   "state": "ME",
   "lat": 43.85,
   "lon": -69.6283,
   "tz": "America/New_York",
   "products": [
    "predictions"
   ],
   "predType": "S",
   "refId": "8418150"
  },
  {
   "id": "8416908",
   "name": "Southport, Townsend Gut",
   "state": "ME",
   "lat": 43.8467,
   "lon": -69.6617,
   "tz": "America/New_York",
   "products": [
    "predictions"
   ],
   "predType": "S",
   "refId": "8418150"
  },
  {
   "id": "8416921",
   "name": "Wiscasset",
   "state": "ME",
   "lat": 44,
   "lon": -69.6667,
   "tz": "America/New_York",
   "products": [
    "predictions"
   ],
   "predType": "S",
   "refId": "8418150"
  },
  {
   "id": "8416928",
   "name": "Cross River entrance",
   "state": "ME",
   "lat": 43.925,
   "lon": -69.67,
   "tz": "America/New_York",
   "products": [
    "predictions"
   ],
   "predType": "S",
   "refId": "8418150"
  },
  {
   "id": "8416961",
   "name": "Back River",
   "state": "ME",
   "lat": 43.9583,
   "lon": -69.6833,
   "tz": "America/New_York",
   "products": [
    "predictions"
   ],
   "predType": "S",
   "refId": "8418150"
  },
  {
   "id": "8416968",
   "name": "Isle of Springs",
   "state": "ME",
   "lat": 43.86,
   "lon": -69.6867,
   "tz": "America/New_York",
   "products": [
    "predictions"
   ],
   "predType": "S",
   "refId": "8418150"
  },
  {
   "id": "8417067",
   "name": "Robinhood, Sasanoa River",
   "state": "ME",
   "lat": 43.8533,
   "lon": -69.7333,
   "tz": "America/New_York",
   "products": [
    "predictions"
   ],
   "predType": "S",
   "refId": "8418150"
  },
  {
   "id": "8417127",
   "name": "Mill Point, Sasanoa River",
   "state": "ME",
   "lat": 43.8867,
   "lon": -69.7633,
   "tz": "America/New_York",
   "products": [
    "predictions"
   ],
   "predType": "S",
   "refId": "8418150"
  },
  {
   "id": "8417134",
   "name": "Gardiner",
   "state": "ME",
   "lat": 44.2333,
   "lon": -69.7667,
   "tz": "America/New_York",
   "products": [
    "predictions"
   ],
   "predType": "R",
   "refId": null
  },
  {
   "id": "8417177",
   "name": "Fort Popham, Hunniwell Point",
   "state": "ME",
   "lat": 43.755,
   "lon": -69.785,
   "tz": "America/New_York",
   "products": [
    "predictions"
   ],
   "predType": "R",
   "refId": null
  },
  {
   "id": "8417208",
   "name": "Richmond",
   "state": "ME",
   "lat": 44.0883,
   "lon": -69.7983,
   "tz": "America/New_York",
   "products": [
    "predictions"
   ],
   "predType": "R",
   "refId": null
  },
  {
   "id": "8417221",
   "name": "Phippsburg",
   "state": "ME",
   "lat": 43.8183,
   "lon": -69.81,
   "tz": "America/New_York",
   "products": [
    "predictions"
   ],
   "predType": "S",
   "refId": "8418150"
  },
  {
   "id": "8417227",
   "name": "Bath",
   "state": "ME",
   "lat": 43.925,
   "lon": -69.815,
   "tz": "America/New_York",
   "products": [
    "predictions"
   ],
   "predType": "R",
   "refId": null
  },
  {
   "id": "8417271",
   "name": "Sturgeon Island, Merrymeeting Bay",
   "state": "ME",
   "lat": 43.9817,
   "lon": -69.835,
   "tz": "America/New_York",
   "products": [
    "predictions"
   ],
   "predType": "S",
   "refId": "8418150"
  },
  {
   "id": "8417367",
   "name": "Howard Point, New Meadows River",
   "state": "ME",
   "lat": 43.89,
   "lon": -69.8833,
   "tz": "America/New_York",
   "products": [
    "predictions"
   ],
   "predType": "S",
   "refId": "8418150"
  },
  {
   "id": "8417377",
   "name": "Androscoggin River entrance",
   "state": "ME",
   "lat": 43.95,
   "lon": -69.8883,
   "tz": "America/New_York",
   "products": [
    "predictions"
   ],
   "predType": "S",
   "refId": "8418150"
  },
  {
   "id": "8417387",
   "name": "Cundy Harbor, New Meadows River",
   "state": "ME",
   "lat": 43.7883,
   "lon": -69.8933,
   "tz": "America/New_York",
   "products": [
    "predictions"
   ],
   "predType": "S",
   "refId": "8418150"
  },
  {
   "id": "8417391",
   "name": "Bowdoinham, Cathance River",
   "state": "ME",
   "lat": 44.0083,
   "lon": -69.895,
   "tz": "America/New_York",
   "products": [
    "predictions"
   ],
   "predType": "S",
   "refId": "8418150"
  },
  {
   "id": "8417527",
   "name": "Brunswick, Androscoggin River",
   "state": "ME",
   "lat": 43.9217,
   "lon": -69.9633,
   "tz": "America/New_York",
   "products": [
    "predictions"
   ],
   "predType": "S",
   "refId": "8418150"
  },
  {
   "id": "8417553",
   "name": "Wilson Cove, Middle Bay",
   "state": "ME",
   "lat": 43.825,
   "lon": -69.9767,
   "tz": "America/New_York",
   "products": [
    "predictions"
   ],
   "predType": "S",
   "refId": "8418150"
  },
  {
   "id": "8417647",
   "name": "South Harpswell, Potts Harbor",
   "state": "ME",
   "lat": 43.7383,
   "lon": -70.0233,
   "tz": "America/New_York",
   "products": [
    "predictions"
   ],
   "predType": "S",
   "refId": "8418150"
  },
  {
   "id": "8417801",
   "name": "South Freeport",
   "state": "ME",
   "lat": 43.82,
   "lon": -70.1033,
   "tz": "America/New_York",
   "products": [
    "predictions"
   ],
   "predType": "S",
   "refId": "8418150"
  },
  {
   "id": "8417821",
   "name": "Cliff Island, Luckse Sound",
   "state": "ME",
   "lat": 43.695,
   "lon": -70.11,
   "tz": "America/New_York",
   "products": [
    "predictions"
   ],
   "predType": "S",
   "refId": "8418150"
  },
  {
   "id": "8417874",
   "name": "Doyle Point",
   "state": "ME",
   "lat": 43.7517,
   "lon": -70.14,
   "tz": "America/New_York",
   "products": [
    "predictions"
   ],
   "predType": "S",
   "refId": "8418150"
  },
  {
   "id": "8417881",
   "name": "Great Chebeague Island",
   "state": "ME",
   "lat": 43.7217,
   "lon": -70.1417,
   "tz": "America/New_York",
   "products": [
    "predictions"
   ],
   "predType": "S",
   "refId": "8418150"
  },
  {
   "id": "8417911",
   "name": "Vaill Island",
   "state": "ME",
   "lat": 43.6767,
   "lon": -70.155,
   "tz": "America/New_York",
   "products": [
    "predictions"
   ],
   "predType": "S",
   "refId": "8418150"
  },
  {
   "id": "8417941",
   "name": "Long Island",
   "state": "ME",
   "lat": 43.69,
   "lon": -70.17,
   "tz": "America/New_York",
   "products": [
    "predictions"
   ],
   "predType": "S",
   "refId": "8418150"
  },
  {
   "id": "8417948",
   "name": "Prince Point",
   "state": "ME",
   "lat": 43.7617,
   "lon": -70.1733,
   "tz": "America/New_York",
   "products": [
    "predictions"
   ],
   "predType": "S",
   "refId": "8418150"
  },
  {
   "id": "8417988",
   "name": "Great Diamond Island",
   "state": "ME",
   "lat": 43.67,
   "lon": -70.2,
   "tz": "America/New_York",
   "products": [
    "predictions"
   ],
   "predType": "S",
   "refId": "8418150"
  },
  {
   "id": "8417997",
   "name": "Cushing Island",
   "state": "ME",
   "lat": 43.645,
   "lon": -70.1983,
   "tz": "America/New_York",
   "products": [
    "predictions"
   ],
   "predType": "S",
   "refId": "8418150"
  },
  {
   "id": "8418001",
   "name": "Peak Island",
   "state": "ME",
   "lat": 43.655,
   "lon": -70.2,
   "tz": "America/New_York",
   "products": [
    "predictions"
   ],
   "predType": "S",
   "refId": "8418150"
  },
  {
   "id": "8418009",
   "name": "Cow Island",
   "state": "ME",
   "lat": 43.69,
   "lon": -70.19,
   "tz": "America/New_York",
   "products": [
    "predictions"
   ],
   "predType": "S",
   "refId": "8418150"
  },
  {
   "id": "8418015",
   "name": "Falmouth Foreside",
   "state": "ME",
   "lat": 43.7317,
   "lon": -70.205,
   "tz": "America/New_York",
   "products": [
    "predictions"
   ],
   "predType": "S",
   "refId": "8418150"
  },
  {
   "id": "8418031",
   "name": "Portland Head Light",
   "state": "ME",
   "lat": 43.6233,
   "lon": -70.2067,
   "tz": "America/New_York",
   "products": [
    "predictions"
   ],
   "predType": "S",
   "refId": "8418150"
  },
  {
   "id": "8418137",
   "name": "Presumpscot River Bridge",
   "state": "ME",
   "lat": 43.6867,
   "lon": -70.2467,
   "tz": "America/New_York",
   "products": [
    "predictions"
   ],
   "predType": "S",
   "refId": "8418150"
  },
  {
   "id": "8418150",
   "name": "PORTLAND",
   "state": "ME",
   "lat": 43.65806,
   "lon": -70.24417,
   "tz": "America/New_York",
   "products": [
    "predictions",
    "water_level",
    "water_temperature",
    "wind",
    "air_temperature",
    "air_pressure"
   ],
   "predType": "R",
   "refId": null
  },
  {
   "id": "8418175",
   "name": "Back Cove",
   "state": "ME",
   "lat": 43.6767,
   "lon": -70.255,
   "tz": "America/New_York",
   "products": [
    "predictions"
   ],
   "predType": "S",
   "refId": "8418150"
  },
  {
   "id": "8418268",
   "name": "Fore River",
   "state": "ME",
   "lat": 43.6417,
   "lon": -70.285,
   "tz": "America/New_York",
   "products": [
    "predictions"
   ],
   "predType": "S",
   "refId": "8418150"
  },
  {
   "id": "8418445",
   "name": "Pine Point, Scarborough River",
   "state": "ME",
   "lat": 43.545,
   "lon": -70.3333,
   "tz": "America/New_York",
   "products": [
    "predictions"
   ],
   "predType": "R",
   "refId": null
  },
  {
   "id": "8418557",
   "name": "Old Orchard Beach",
   "state": "ME",
   "lat": 43.5167,
   "lon": -70.3667,
   "tz": "America/New_York",
   "products": [
    "predictions"
   ],
   "predType": "S",
   "refId": "8418150"
  },
  {
   "id": "8418606",
   "name": "Camp Ellis, Saco River Entrance",
   "state": "ME",
   "lat": 43.4617,
   "lon": -70.3817,
   "tz": "America/New_York",
   "products": [
    "predictions"
   ],
   "predType": "R",
   "refId": null
  },
  {
   "id": "8418772",
   "name": "Cape Porpoise",
   "state": "ME",
   "lat": 43.3667,
   "lon": -70.4317,
   "tz": "America/New_York",
   "products": [
    "predictions"
   ],
   "predType": "S",
   "refId": "8418150"
  },
  {
   "id": "8418828",
   "name": "Biddeford, Saco River",
   "state": "ME",
   "lat": 43.4917,
   "lon": -70.4467,
   "tz": "America/New_York",
   "products": [
    "predictions"
   ],
   "predType": "R",
   "refId": null
  },
  {
   "id": "8418911",
   "name": "Kennebunkport",
   "state": "ME",
   "lat": 43.3583,
   "lon": -70.4767,
   "tz": "America/New_York",
   "products": [
    "predictions"
   ],
   "predType": "R",
   "refId": null
  },
  {
   "id": "8419317",
   "name": "Wells, Webhannet River",
   "state": "ME",
   "lat": 43.32,
   "lon": -70.5633,
   "tz": "America/New_York",
   "products": [
    "predictions"
   ],
   "predType": "R",
   "refId": null
  },
  {
   "id": "8419399",
   "name": "Cape Neddick",
   "state": "ME",
   "lat": 43.1667,
   "lon": -70.5933,
   "tz": "America/New_York",
   "products": [
    "predictions"
   ],
   "predType": "S",
   "refId": "8418150"
  },
  {
   "id": "8419518",
   "name": "York Harbor",
   "state": "ME",
   "lat": 43.1317,
   "lon": -70.6417,
   "tz": "America/New_York",
   "products": [
    "predictions"
   ],
   "predType": "S",
   "refId": "8418150"
  },
  {
   "id": "8419528",
   "name": "Fort Point, York Harbor",
   "state": "ME",
   "lat": 43.13,
   "lon": -70.6383,
   "tz": "America/New_York",
   "products": [
    "predictions"
   ],
   "predType": "S",
   "refId": "8418150"
  },
  {
   "id": "8419590",
   "name": "Seapoint, Cutts Island",
   "state": "ME",
   "lat": 43.085,
   "lon": -70.6617,
   "tz": "America/New_York",
   "products": [
    "predictions"
   ],
   "predType": "S",
   "refId": "8418150"
  },
  {
   "id": "8419688",
   "name": "Gerrish Island",
   "state": "ME",
   "lat": 43.0667,
   "lon": -70.6967,
   "tz": "America/New_York",
   "products": [
    "predictions"
   ],
   "predType": "S",
   "refId": "8418150"
  },
  {
   "id": "8419807",
   "name": "Kittery Point",
   "state": "ME",
   "lat": 43.0817,
   "lon": -70.7033,
   "tz": "America/New_York",
   "products": [
    "predictions"
   ],
   "predType": "S",
   "refId": "8418150"
  },
  {
   "id": "8419870",
   "name": "Seavey Island",
   "state": "ME",
   "lat": 43.07972,
   "lon": -70.74111,
   "tz": "America/New_York",
   "products": [
    "predictions",
    "water_level",
    "water_temperature",
    "wind",
    "air_temperature",
    "air_pressure"
   ],
   "predType": "R",
   "refId": null
  },
  {
   "id": "8419997",
   "name": "Salmon Falls River",
   "state": "ME",
   "lat": 43.1917,
   "lon": -70.825,
   "tz": "America/New_York",
   "products": [
    "predictions"
   ],
   "predType": "S",
   "refId": "8418150"
  },
  {
   "id": "8420411",
   "name": "Dover, Cocheco River",
   "state": "NH",
   "lat": 43.1983,
   "lon": -70.8683,
   "tz": "America/New_York",
   "products": [
    "predictions"
   ],
   "predType": "R",
   "refId": null
  },
  {
   "id": "8421897",
   "name": "Dover Point",
   "state": "NH",
   "lat": 43.1217,
   "lon": -70.8333,
   "tz": "America/New_York",
   "products": [
    "predictions"
   ],
   "predType": "S",
   "refId": "8418150"
  },
  {
   "id": "8422687",
   "name": "Squamscott River RR. Bridge",
   "state": "NH",
   "lat": 43.0533,
   "lon": -70.9133,
   "tz": "America/New_York",
   "products": [
    "predictions"
   ],
   "predType": "S",
   "refId": "8418150"
  },
  {
   "id": "8423635",
   "name": "Atlantic Heights",
   "state": "NH",
   "lat": 43.09,
   "lon": -70.7633,
   "tz": "America/New_York",
   "products": [
    "predictions"
   ],
   "predType": "S",
   "refId": "8418150"
  },
  {
   "id": "8423745",
   "name": "Portsmouth",
   "state": "NH",
   "lat": 43.0783,
   "lon": -70.7517,
   "tz": "America/New_York",
   "products": [
    "predictions"
   ],
   "predType": "S",
   "refId": "8418150"
  },
  {
   "id": "8423898",
   "name": "Fort Point",
   "state": "NH",
   "lat": 43.0717,
   "lon": -70.7117,
   "tz": "America/New_York",
   "products": [
    "predictions"
   ],
   "predType": "R",
   "refId": null
  },
  {
   "id": "8424601",
   "name": "Jaffrey Point",
   "state": "NH",
   "lat": 43.0567,
   "lon": -70.7133,
   "tz": "America/New_York",
   "products": [
    "predictions"
   ],
   "predType": "S",
   "refId": "8418150"
  },
  {
   "id": "8427031",
   "name": "Gosport Harbor, Isles of Shoals",
   "state": "NH",
   "lat": 42.9783,
   "lon": -70.615,
   "tz": "America/New_York",
   "products": [
    "predictions"
   ],
   "predType": "S",
   "refId": "8418150"
  },
  {
   "id": "8429489",
   "name": "Hampton Harbor",
   "state": "NH",
   "lat": 42.895,
   "lon": -70.8167,
   "tz": "America/New_York",
   "products": [
    "predictions"
   ],
   "predType": "S",
   "refId": "8418150"
  },
  {
   "id": "8440273",
   "name": "Salisbury Point",
   "state": "MA",
   "lat": 42.8383,
   "lon": -70.9083,
   "tz": "America/New_York",
   "products": [
    "predictions"
   ],
   "predType": "R",
   "refId": null
  },
  {
   "id": "8440369",
   "name": "Merrimacport",
   "state": "MA",
   "lat": 42.825,
   "lon": -70.9883,
   "tz": "America/New_York",
   "products": [
    "predictions"
   ],
   "predType": "R",
   "refId": null
  },
  {
   "id": "8440452",
   "name": "Plum Island, Merrimack River Entrance",
   "state": "MA",
   "lat": 42.8167,
   "lon": -70.82,
   "tz": "America/New_York",
   "products": [
    "predictions"
   ],
   "predType": "R",
   "refId": null
  },
  {
   "id": "8440466",
   "name": "Newburyport",
   "state": "MA",
   "lat": 42.815,
   "lon": -70.8733,
   "tz": "America/New_York",
   "products": [
    "predictions"
   ],
   "predType": "R",
   "refId": null
  },
  {
   "id": "8440889",
   "name": "Riverside",
   "state": "MA",
   "lat": 42.76389,
   "lon": -71.03403,
   "tz": "America/New_York",
   "products": [
    "predictions"
   ],
   "predType": "R",
   "refId": null
  },
  {
   "id": "8441241",
   "name": "Plum Island Sound (south end)",
   "state": "MA",
   "lat": 42.71014,
   "lon": -70.78861,
   "tz": "America/New_York",
   "products": [
    "predictions"
   ],
   "predType": "R",
   "refId": null
  },
  {
   "id": "8441551",
   "name": "Rockport",
   "state": "MA",
   "lat": 42.6583,
   "lon": -70.615,
   "tz": "America/New_York",
   "products": [
    "predictions"
   ],
   "predType": "R",
   "refId": null
  },
  {
   "id": "8441571",
   "name": "Annisquam, Lobster Cove",
   "state": "MA",
   "lat": 42.655,
   "lon": -70.6767,
   "tz": "America/New_York",
   "products": [
    "predictions"
   ],
   "predType": "R",
   "refId": null
  },
  {
   "id": "8441771",
   "name": "Essex",
   "state": "MA",
   "lat": 42.6317,
   "lon": -70.7767,
   "tz": "America/New_York",
   "products": [
    "predictions"
   ],
   "predType": "R",
   "refId": null
  },
  {
   "id": "8441841",
   "name": "Gloucester Harbor",
   "state": "MA",
   "lat": 42.61,
   "lon": -70.66,
   "tz": "America/New_York",
   "products": [
    "predictions"
   ],
   "predType": "R",
   "refId": null
  },
  {
   "id": "8442417",
   "name": "Beverly, Beverly Harbor",
   "state": "MA",
   "lat": 42.54,
   "lon": -70.8867,
   "tz": "America/New_York",
   "products": [
    "predictions"
   ],
   "predType": "R",
   "refId": null
  },
  {
   "id": "8442645",
   "name": "Salem, Salem Harbor",
   "state": "MA",
   "lat": 42.5233,
   "lon": -70.8767,
   "tz": "America/New_York",
   "products": [
    "predictions"
   ],
   "predType": "R",
   "refId": null
  },
  {
   "id": "8443187",
   "name": "Lynn, Lynn Harbor",
   "state": "MA",
   "lat": 42.4583,
   "lon": -70.9433,
   "tz": "America/New_York",
   "products": [
    "predictions"
   ],
   "predType": "R",
   "refId": null
  },
  {
   "id": "8443662",
   "name": "Amelia Earhart Dam, Mystic River",
   "state": "MA",
   "lat": 42.395,
   "lon": -71.0767,
   "tz": "America/New_York",
   "products": [
    "predictions"
   ],
   "predType": "R",
   "refId": null
  },
  {
   "id": "8443725",
   "name": "Chelsea St. Bridge, Chelsea River",
   "state": "MA",
   "lat": 42.3867,
   "lon": -71.0233,
   "tz": "America/New_York",
   "products": [
    "predictions"
   ],
   "predType": "R",
   "refId": null
  },
  {
   "id": "8443838",
   "name": "Charlestown, Charles River entrance",
   "state": "MA",
   "lat": 42.3717,
   "lon": -71.055,
   "tz": "America/New_York",
   "products": [
    "predictions"
   ],
   "predType": "S",
   "refId": "8443970"
  },
  {
   "id": "8443970",
   "name": "BOSTON",
   "state": "MA",
   "lat": 42.35389,
   "lon": -71.05028,
   "tz": "America/New_York",
   "products": [
    "predictions",
    "water_level",
    "wind",
    "air_temperature",
    "air_pressure"
   ],
   "predType": "R",
   "refId": null
  },
  {
   "id": "8444012",
   "name": "Deer Island (south end)",
   "state": "MA",
   "lat": 42.3483,
   "lon": -70.96,
   "tz": "America/New_York",
   "products": [
    "predictions"
   ],
   "predType": "S",
   "refId": "8443970"
  },
  {
   "id": "8444069",
   "name": "Castle Island, North of",
   "state": "MA",
   "lat": 42.34086,
   "lon": -71.01234,
   "tz": "America/New_York",
   "products": [
    "wind",
    "air_temperature",
    "air_pressure"
   ],
   "predType": null,
   "refId": null
  },
  {
   "id": "8444162",
   "name": "Boston Light",
   "state": "MA",
   "lat": 42.3283,
   "lon": -70.8917,
   "tz": "America/New_York",
   "products": [
    "predictions"
   ],
   "predType": "R",
   "refId": null
  },
  {
   "id": "8444312",
   "name": "Moon Head",
   "state": "MA",
   "lat": 42.3083,
   "lon": -70.9917,
   "tz": "America/New_York",
   "products": [
    "predictions"
   ],
   "predType": "S",
   "refId": "8443970"
  },
  {
   "id": "8444351",
   "name": "Hull",
   "state": "MA",
   "lat": 42.3033,
   "lon": -70.92,
   "tz": "America/New_York",
   "products": [
    "predictions"
   ],
   "predType": "S",
   "refId": "8443970"
  },
  {
   "id": "8444488",
   "name": "Neponset, Neponset River",
   "state": "MA",
   "lat": 42.285,
   "lon": -71.04,
   "tz": "America/New_York",
   "products": [
    "predictions"
   ],
   "predType": "S",
   "refId": "8443970"
  },
  {
   "id": "8444525",
   "name": "Nut Island, Quincy Bay",
   "state": "MA",
   "lat": 42.28,
   "lon": -70.9533,
   "tz": "America/New_York",
   "products": [
    "predictions"
   ],
   "predType": "R",
   "refId": null
  },
  {
   "id": "8444601",
   "name": "Nantasket Beach, Weir River",
   "state": "MA",
   "lat": 42.27,
   "lon": -70.86,
   "tz": "America/New_York",
   "products": [
    "predictions"
   ],
   "predType": "S",
   "refId": "8443970"
  },
  {
   "id": "8444662",
   "name": "Crow Point, Hingham Harbor entrance",
   "state": "MA",
   "lat": 42.2617,
   "lon": -70.8933,
   "tz": "America/New_York",
   "products": [
    "predictions"
   ],
   "predType": "S",
   "refId": "8443970"
  },
  {
   "id": "8444762",
   "name": "Cohasset Harbor (White Head)",
   "state": "MA",
   "lat": 42.2483,
   "lon": -70.785,
   "tz": "America/New_York",
   "products": [
    "predictions"
   ],
   "predType": "S",
   "refId": "8443970"
  },
  {
   "id": "8444775",
   "name": "Hingham",
   "state": "MA",
   "lat": 42.2467,
   "lon": -70.885,
   "tz": "America/New_York",
   "products": [
    "predictions"
   ],
   "predType": "S",
   "refId": "8443970"
  },
  {
   "id": "8444788",
   "name": "Weymouth Fore River Bridge",
   "state": "MA",
   "lat": 42.2483,
   "lon": -70.9667,
   "tz": "America/New_York",
   "products": [
    "predictions"
   ],
   "predType": "R",
   "refId": null
  },
  {
   "id": "8445138",
   "name": "Scituate, Scituate Harbor",
   "state": "MA",
   "lat": 42.2017,
   "lon": -70.7267,
   "tz": "America/New_York",
   "products": [
    "predictions"
   ],
   "predType": "R",
   "refId": null
  },
  {
   "id": "8445425",
   "name": "Damons Point, North River",
   "state": "MA",
   "lat": 42.16,
   "lon": -70.7333,
   "tz": "America/New_York",
   "products": [
    "predictions"
   ],
   "predType": "S",
   "refId": "8443970"
  },
  {
   "id": "8446009",
   "name": "Brant Rock, Green Harbor River",
   "state": "MA",
   "lat": 42.0833,
   "lon": -70.6467,
   "tz": "America/New_York",
   "products": [
    "predictions"
   ],
   "predType": "R",
   "refId": null
  },
  {
   "id": "8446121",
   "name": "Provincetown",
   "state": "MA",
   "lat": 42.04959,
   "lon": -70.18216,
   "tz": "America/New_York",
   "products": [
    "predictions"
   ],
   "predType": "R",
   "refId": null
  },
  {
   "id": "8446166",
   "name": "Duxbury, Duxbury Harbor",
   "state": "MA",
   "lat": 42.0383,
   "lon": -70.67,
   "tz": "America/New_York",
   "products": [
    "predictions"
   ],
   "predType": "R",
   "refId": null
  },
  {
   "id": "8446493",
   "name": "Plymouth",
   "state": "MA",
   "lat": 41.96,
   "lon": -70.6617,
   "tz": "America/New_York",
   "products": [
    "predictions"
   ],
   "predType": "R",
   "refId": null
  },
  {
   "id": "8446613",
   "name": "Wellfleet",
   "state": "MA",
   "lat": 41.93,
   "lon": -70.0417,
   "tz": "America/New_York",
   "products": [
    "predictions"
   ],
   "predType": "S",
   "refId": "8443970"
  },
  {
   "id": "8447173",
   "name": "Cape Cod Canal, Sagamore",
   "state": "MA",
   "lat": 41.775,
   "lon": -70.535,
   "tz": "America/New_York",
   "products": [
    "predictions"
   ],
   "predType": "R",
   "refId": null
  },
  {
   "id": "8447180",
   "name": "Sandwich Marina, Cape Cod Canal, east entrance",
   "state": "MA",
   "lat": 41.7717,
   "lon": -70.5067,
   "tz": "America/New_York",
   "products": [
    "predictions"
   ],
   "predType": "R",
   "refId": null
  },
  {
   "id": "8447191",
   "name": "Cape Cod Canal, Bournedale",
   "state": "MA",
   "lat": 41.77,
   "lon": -70.5617,
   "tz": "America/New_York",
   "products": [
    "predictions"
   ],
   "predType": "R",
   "refId": null
  },
  {
   "id": "8447241",
   "name": "Sesuit Harbor, East Dennis",
   "state": "MA",
   "lat": 41.7517,
   "lon": -70.155,
   "tz": "America/New_York",
   "products": [
    "predictions"
   ],
   "predType": "R",
   "refId": null
  },
  {
   "id": "8447259",
   "name": "Cape Cod Canal, Bourne Bridge",
   "state": "MA",
   "lat": 41.745,
   "lon": -70.5933,
   "tz": "America/New_York",
   "products": [
    "predictions"
   ],
   "predType": "R",
   "refId": null
  },
  {
   "id": "8447270",
   "name": "Cape Cod Canal, RR. bridge",
   "state": "MA",
   "lat": 41.7417,
   "lon": -70.6167,
   "tz": "America/New_York",
   "products": [
    "predictions"
   ],
   "predType": "R",
   "refId": null
  },
  {
   "id": "8447277",
   "name": "Onset Beach, Onset Bay",
   "state": "MA",
   "lat": 41.7417,
   "lon": -70.6583,
   "tz": "America/New_York",
   "products": [
    "predictions"
   ],
   "predType": "S",
   "refId": "8452660"
  },
  {
   "id": "8447281",
   "name": "Steep Brook, Taunton River",
   "state": "MA",
   "lat": 41.74,
   "lon": -71.1317,
   "tz": "America/New_York",
   "products": [
    "predictions"
   ],
   "predType": "S",
   "refId": "8452660"
  },
  {
   "id": "8447291",
   "name": "Pleasant Bay",
   "state": "MA",
   "lat": 41.7367,
   "lon": -69.9817,
   "tz": "America/New_York",
   "products": [
    "predictions"
   ],
   "predType": "S",
   "refId": "8443970"
  },
  {
   "id": "8447295",
   "name": "Gray Gables",
   "state": "MA",
   "lat": 41.735,
   "lon": -70.6233,
   "tz": "America/New_York",
   "products": [
    "predictions"
   ],
   "predType": "R",
   "refId": null
  },
  {
   "id": "8447335",
   "name": "Barnstable Harbor, Beach Point",
   "state": "MA",
   "lat": 41.7217,
   "lon": -70.285,
   "tz": "America/New_York",
   "products": [
    "predictions"
   ],
   "predType": "S",
   "refId": "8443970"
  },
  {
   "id": "8447355",
   "name": "Monument Beach",
   "state": "MA",
   "lat": 41.715,
   "lon": -70.6167,
   "tz": "America/New_York",
   "products": [
    "predictions"
   ],
   "predType": "S",
   "refId": "8452660"
  },
  {
   "id": "8447368",
   "name": "Great Hill",
   "state": "MA",
   "lat": 41.7117,
   "lon": -70.715,
   "tz": "America/New_York",
   "products": [
    "predictions"
   ],
   "predType": "R",
   "refId": null
  },
  {
   "id": "8447385",
   "name": "Marion, Sippican Harbor",
   "state": "MA",
   "lat": 41.705,
   "lon": -70.7617,
   "tz": "America/New_York",
   "products": [
    "predictions"
   ],
   "predType": "S",
   "refId": "8452660"
  },
  {
   "id": "8447386",
   "name": "Fall River, Massachusetts",
   "state": "MA",
   "lat": 41.7043,
   "lon": -71.1641,
   "tz": "America/New_York",
   "products": [
    "predictions",
    "water_level",
    "water_temperature",
    "wind",
    "air_temperature",
    "air_pressure"
   ],
   "predType": "R",
   "refId": null
  },
  {
   "id": "8447387",
   "name": "Borden Flats Light at Fall River",
   "state": "MA",
   "lat": 41.705,
   "lon": -71.1733,
   "tz": "America/New_York",
   "products": [
    "wind",
    "air_temperature",
    "air_pressure"
   ],
   "predType": null,
   "refId": null
  },
  {
   "id": "8447412",
   "name": "Fall River Visibility",
   "state": "MA",
   "lat": 41.69584,
   "lon": -71.17983,
   "tz": "America/New_York",
   "products": [
    "wind",
    "air_temperature",
    "air_pressure"
   ],
   "predType": null,
   "refId": null
  },
  {
   "id": "8447416",
   "name": "Piney Point",
   "state": "MA",
   "lat": 41.695,
   "lon": -70.72,
   "tz": "America/New_York",
   "products": [
    "predictions"
   ],
   "predType": "R",
   "refId": null
  },
  {
   "id": "8447435",
   "name": "Chatham Harbor, Aunt Lydias Cove",
   "state": "MA",
   "lat": 41.6885,
   "lon": -69.9511,
   "tz": "America/New_York",
   "products": [
    "predictions",
    "water_level",
    "water_temperature"
   ],
   "predType": "R",
   "refId": null
  },
  {
   "id": "8447436",
   "name": "Georges Shoal, Texas Tower",
   "state": "MA",
   "lat": 41.6883,
   "lon": -67.76,
   "tz": "America/New_York",
   "products": [
    "predictions"
   ],
   "predType": "S",
   "refId": "8443970"
  },
  {
   "id": "8447495",
   "name": "Saquatucket Harbor",
   "state": "MA",
   "lat": 41.6683,
   "lon": -70.0567,
   "tz": "America/New_York",
   "products": [
    "predictions"
   ],
   "predType": "R",
   "refId": null
  },
  {
   "id": "8447504",
   "name": "South Yarmouth, Bass River",
   "state": "MA",
   "lat": 41.665,
   "lon": -70.1833,
   "tz": "America/New_York",
   "products": [
    "predictions"
   ],
   "predType": "S",
   "refId": "8443970"
  },
  {
   "id": "8447505",
   "name": "Chatham, Stage Harbor",
   "state": "MA",
   "lat": 41.6667,
   "lon": -69.9667,
   "tz": "America/New_York",
   "products": [
    "predictions"
   ],
   "predType": "R",
   "refId": null
  },
  {
   "id": "8447506",
   "name": "Wychmere Harbor",
   "state": "MA",
   "lat": 41.665,
   "lon": -70.065,
   "tz": "America/New_York",
   "products": [
    "predictions"
   ],
   "predType": "S",
   "refId": "8443970"
  },
  {
   "id": "8447525",
   "name": "Dennisport",
   "state": "MA",
   "lat": 41.6583,
   "lon": -70.115,
   "tz": "America/New_York",
   "products": [
    "predictions"
   ],
   "predType": "S",
   "refId": "8443970"
  },
  {
   "id": "8447531",
   "name": "Mattapoisett, Mattapoisett Harbor",
   "state": "MA",
   "lat": 41.6567,
   "lon": -70.8133,
   "tz": "America/New_York",
   "products": [
    "predictions"
   ],
   "predType": "S",
   "refId": "8452660"
  },
  {
   "id": "8447605",
   "name": "Hyannis Port",
   "state": "MA",
   "lat": 41.6317,
   "lon": -70.3,
   "tz": "America/New_York",
   "products": [
    "predictions"
   ],
   "predType": "R",
   "refId": null
  },
  {
   "id": "8447627",
   "name": "New Bedford, Barrier Gate",
   "state": "MA",
   "lat": 41.62444,
   "lon": -70.90544,
   "tz": "America/New_York",
   "products": [
    "wind",
    "air_temperature",
    "air_pressure"
   ],
   "predType": null,
   "refId": null
  },
  {
   "id": "8447636",
   "name": "New Bedford Harbor, Marine Terminal",
   "state": "MA",
   "lat": 41.6212,
   "lon": -70.9137,
   "tz": "America/New_York",
   "products": [
    "predictions",
    "water_level"
   ],
   "predType": "R",
   "refId": null
  },
  {
   "id": "8447675",
   "name": "Cotuit Highlands",
   "state": "MA",
   "lat": 41.6083,
   "lon": -70.4367,
   "tz": "America/New_York",
   "products": [
    "predictions"
   ],
   "predType": "S",
   "refId": "8443970"
  },
  {
   "id": "8447685",
   "name": "Chappaquoit Point, West Falmouth Harbor",
   "state": "MA",
   "lat": 41.605,
   "lon": -70.6517,
   "tz": "America/New_York",
   "products": [
    "predictions"
   ],
   "predType": "R",
   "refId": null
  },
  {
   "id": "8447712",
   "name": "Clarks Point",
   "state": "MA",
   "lat": 41.5933,
   "lon": -70.9,
   "tz": "America/New_York",
   "products": [
    "predictions"
   ],
   "predType": "R",
   "refId": null
  },
  {
   "id": "8447742",
   "name": "Poponesset Island, Poponesset Bay",
   "state": "MA",
   "lat": 41.5867,
   "lon": -70.4633,
   "tz": "America/New_York",
   "products": [
    "predictions"
   ],
   "predType": "S",
   "refId": "8443970"
  },
  {
   "id": "8447791",
   "name": "Hix Bridge, East Branch",
   "state": "MA",
   "lat": 41.57,
   "lon": -71.0733,
   "tz": "America/New_York",
   "products": [
    "predictions"
   ],
   "predType": "S",
   "refId": "8452660"
  },
  {
   "id": "8447842",
   "name": "Round Hill Point",
   "state": "MA",
   "lat": 41.5383,
   "lon": -70.9283,
   "tz": "America/New_York",
   "products": [
    "predictions"
   ],
   "predType": "R",
   "refId": null
  },
  {
   "id": "8447865",
   "name": "Falmouth Heights",
   "state": "MA",
   "lat": 41.545,
   "lon": -70.5933,
   "tz": "America/New_York",
   "products": [
    "predictions"
   ],
   "predType": "S",
   "refId": "8443970"
  },
  {
   "id": "8447930",
   "name": "OCEANOGRAPHIC INSTITUTION",
   "state": "MA",
   "lat": 41.52361,
   "lon": -70.67111,
   "tz": "America/New_York",
   "products": [
    "predictions",
    "water_level",
    "water_temperature",
    "wind",
    "air_temperature",
    "air_pressure"
   ],
   "predType": "R",
   "refId": null
  },
  {
   "id": "8447939",
   "name": "Little Harbor",
   "state": "MA",
   "lat": 41.52,
   "lon": -70.665,
   "tz": "America/New_York",
   "products": [
    "predictions"
   ],
   "predType": "S",
   "refId": "8452660"
  },
  {
   "id": "8447941",
   "name": "Uncatena Island (south side)",
   "state": "MA",
   "lat": 41.52,
   "lon": -70.7083,
   "tz": "America/New_York",
   "products": [
    "predictions"
   ],
   "predType": "S",
   "refId": "8452660"
  },
  {
   "id": "8447975",
   "name": "Westport Harbor",
   "state": "MA",
   "lat": 41.5083,
   "lon": -71.0933,
   "tz": "America/New_York",
   "products": [
    "predictions"
   ],
   "predType": "S",
   "refId": "8452660"
  },
  {
   "id": "8448157",
   "name": "VINEYARD HAVEN, VINEYARD HVN HBR",
   "state": "MA",
   "lat": 41.4583,
   "lon": -70.6,
   "tz": "America/New_York",
   "products": [
    "predictions"
   ],
   "predType": "R",
   "refId": null
  },
  {
   "id": "8448208",
   "name": "Oak Bluffs",
   "state": "MA",
   "lat": 41.4583,
   "lon": -70.555,
   "tz": "America/New_York",
   "products": [
    "predictions"
   ],
   "predType": "S",
   "refId": "8452660"
  },
  {
   "id": "8448248",
   "name": "Penikese Island",
   "state": "MA",
   "lat": 41.45,
   "lon": -70.9217,
   "tz": "America/New_York",
   "products": [
    "predictions"
   ],
   "predType": "R",
   "refId": null
  },
  {
   "id": "8448251",
   "name": "Quicks Hole, North side",
   "state": "MA",
   "lat": 41.4483,
   "lon": -70.8567,
   "tz": "America/New_York",
   "products": [
    "predictions"
   ],
   "predType": "S",
   "refId": "8452660"
  },
  {
   "id": "8448325",
   "name": "Cedar Tree Neck",
   "state": "MA",
   "lat": 41.435,
   "lon": -70.6967,
   "tz": "America/New_York",
   "products": [
    "predictions"
   ],
   "predType": "S",
   "refId": "8452660"
  },
  {
   "id": "8448376",
   "name": "Cuttyhunk",
   "state": "MA",
   "lat": 41.425,
   "lon": -70.9167,
   "tz": "America/New_York",
   "products": [
    "predictions"
   ],
   "predType": "S",
   "refId": "8452660"
  },
  {
   "id": "8448558",
   "name": "Edgartown",
   "state": "MA",
   "lat": 41.3883,
   "lon": -70.5117,
   "tz": "America/New_York",
   "products": [
    "predictions"
   ],
   "predType": "R",
   "refId": null
  },
  {
   "id": "8448566",
   "name": "Great Point",
   "state": "MA",
   "lat": 41.3867,
   "lon": -70.0467,
   "tz": "America/New_York",
   "products": [
    "predictions"
   ],
   "predType": "S",
   "refId": "8443970"
  },
  {
   "id": "8448683",
   "name": "Wasque Point, Chappaquiddick Island",
   "state": "MA",
   "lat": 41.3633,
   "lon": -70.45,
   "tz": "America/New_York",
   "products": [
    "predictions"
   ],
   "predType": "S",
   "refId": "8452660"
  },
  {
   "id": "8448725",
   "name": "Menemsha Harbor, MA",
   "state": "MA",
   "lat": 41.35444,
   "lon": -70.76783,
   "tz": "America/New_York",
   "products": [
    "predictions"
   ],
   "predType": "R",
   "refId": null
  },
  {
   "id": "8448733",
   "name": "Gay Head",
   "state": "MA",
   "lat": 41.3533,
   "lon": -70.83,
   "tz": "America/New_York",
   "products": [
    "predictions"
   ],
   "predType": "S",
   "refId": "8452660"
  },
  {
   "id": "8448817",
   "name": "Muskeget Island, north side",
   "state": "MA",
   "lat": 41.3367,
   "lon": -70.305,
   "tz": "America/New_York",
   "products": [
    "predictions"
   ],
   "predType": "S",
   "refId": "8443970"
  },
  {
   "id": "8448875",
   "name": "Martha's Vineyard GPS Buoy",
   "state": "MA",
   "lat": 41.32622,
   "lon": -70.59033,
   "tz": "America/New_York",
   "products": [
    "predictions"
   ],
   "predType": "R",
   "refId": null
  },
  {
   "id": "8448942",
   "name": "Squibnocket Point",
   "state": "MA",
   "lat": 41.3117,
   "lon": -70.7683,
   "tz": "America/New_York",
   "products": [
    "predictions"
   ],
   "predType": "S",
   "refId": "8452660"
  },
  {
   "id": "8449062",
   "name": "Eel Point",
   "state": "MA",
   "lat": 41.2917,
   "lon": -70.2083,
   "tz": "America/New_York",
   "products": [
    "predictions"
   ],
   "predType": "S",
   "refId": "8443970"
  },
  {
   "id": "8449130",
   "name": "NANTUCKET",
   "state": "MA",
   "lat": 41.285,
   "lon": -70.0967,
   "tz": "America/New_York",
   "products": [
    "predictions",
    "water_level",
    "water_temperature",
    "wind",
    "air_temperature",
    "air_pressure"
   ],
   "predType": "R",
   "refId": null
  },
  {
   "id": "8449287",
   "name": "Nomans Land",
   "state": "MA",
   "lat": 41.2617,
   "lon": -70.8183,
   "tz": "America/New_York",
   "products": [
    "predictions"
   ],
   "predType": "S",
   "refId": "8452660"
  },
  {
   "id": "8450768",
   "name": "Sakonnet",
   "state": "RI",
   "lat": 41.465,
   "lon": -71.1933,
   "tz": "America/New_York",
   "products": [
    "predictions"
   ],
   "predType": "R",
   "refId": null
  },
  {
   "id": "8450898",
   "name": "North End, Bay Oil pier",
   "state": "RI",
   "lat": 41.6517,
   "lon": -71.21,
   "tz": "America/New_York",
   "products": [
    "predictions"
   ],
   "predType": "S",
   "refId": "8452660"
  },
  {
   "id": "8450948",
   "name": "Anthony Point",
   "state": "RI",
   "lat": 41.6383,
   "lon": -71.2117,
   "tz": "America/New_York",
   "products": [
    "predictions"
   ],
   "predType": "S",
   "refId": "8452660"
  },
  {
   "id": "8450954",
   "name": "Nannaquaket Neck",
   "state": "RI",
   "lat": 41.6183,
   "lon": -71.2033,
   "tz": "America/New_York",
   "products": [
    "predictions"
   ],
   "predType": "S",
   "refId": "8452660"
  },
  {
   "id": "8451301",
   "name": "The Glen",
   "state": "RI",
   "lat": 41.5583,
   "lon": -71.2367,
   "tz": "America/New_York",
   "products": [
    "predictions"
   ],
   "predType": "S",
   "refId": "8452660"
  },
  {
   "id": "8451351",
   "name": "Sachuest, Flint Point",
   "state": "RI",
   "lat": 41.4867,
   "lon": -71.2383,
   "tz": "America/New_York",
   "products": [
    "predictions"
   ],
   "predType": "S",
   "refId": "8452660"
  },
  {
   "id": "8451552",
   "name": "Bristol Ferry",
   "state": "RI",
   "lat": 41.6367,
   "lon": -71.255,
   "tz": "America/New_York",
   "products": [
    "predictions"
   ],
   "predType": "R",
   "refId": null
  },
  {
   "id": "8451929",
   "name": "Bristol, Bristol Harbor",
   "state": "RI",
   "lat": 41.6683,
   "lon": -71.28,
   "tz": "America/New_York",
   "products": [
    "predictions"
   ],
   "predType": "S",
   "refId": "8452660"
  },
  {
   "id": "8452154",
   "name": "Bristol Highlands",
   "state": "RI",
   "lat": 41.6967,
   "lon": -71.2933,
   "tz": "America/New_York",
   "products": [
    "predictions"
   ],
   "predType": "R",
   "refId": null
  },
  {
   "id": "8452314",
   "name": "Sandy Point Visibility, Prudence Island",
   "state": "RI",
   "lat": 41.60512,
   "lon": -71.30424,
   "tz": "America/New_York",
   "products": [
    "wind",
    "air_temperature",
    "air_pressure"
   ],
   "predType": null,
   "refId": null
  },
  {
   "id": "8452555",
   "name": "Prudence Island, (south end)",
   "state": "RI",
   "lat": 41.58,
   "lon": -71.3217,
   "tz": "America/New_York",
   "products": [
    "predictions"
   ],
   "predType": "S",
   "refId": "8452660"
  },
  {
   "id": "8452660",
   "name": "NEWPORT",
   "state": "RI",
   "lat": 41.50433,
   "lon": -71.32614,
   "tz": "America/New_York",
   "products": [
    "predictions",
    "water_level",
    "water_temperature",
    "wind",
    "air_temperature",
    "air_pressure"
   ],
   "predType": "R",
   "refId": null
  },
  {
   "id": "8452944",
   "name": "Conimicut Light",
   "state": "RI",
   "lat": 41.7167,
   "lon": -71.3433,
   "tz": "America/New_York",
   "products": [
    "predictions",
    "water_level",
    "water_temperature",
    "wind",
    "air_temperature",
    "air_pressure"
   ],
   "predType": "R",
   "refId": null
  },
  {
   "id": "8452951",
   "name": "Potter Cove, Prudence Island",
   "state": "RI",
   "lat": 41.63717,
   "lon": -71.33928,
   "tz": "America/New_York",
   "products": [
    "wind",
    "air_temperature",
    "air_pressure"
   ],
   "predType": null,
   "refId": null
  },
  {
   "id": "8453033",
   "name": "Bay Spring, Bullock Cove",
   "state": "RI",
   "lat": 41.7517,
   "lon": -71.3517,
   "tz": "America/New_York",
   "products": [
    "predictions"
   ],
   "predType": "R",
   "refId": null
  },
  {
   "id": "8453201",
   "name": "Castle Hill",
   "state": "RI",
   "lat": 41.4633,
   "lon": -71.3617,
   "tz": "America/New_York",
   "products": [
    "predictions"
   ],
   "predType": "S",
   "refId": "8452660"
  },
  {
   "id": "8453433",
   "name": "Rumford, Seekonk River",
   "state": "RI",
   "lat": 41.84,
   "lon": -71.3733,
   "tz": "America/New_York",
   "products": [
    "predictions"
   ],
   "predType": "R",
   "refId": null
  },
  {
   "id": "8453465",
   "name": "Conanicut Point",
   "state": "RI",
   "lat": 41.5733,
   "lon": -71.3717,
   "tz": "America/New_York",
   "products": [
    "predictions"
   ],
   "predType": "S",
   "refId": "8452660"
  },
  {
   "id": "8453611",
   "name": "Pawtucket, Seekonk River",
   "state": "RI",
   "lat": 41.8683,
   "lon": -71.38,
   "tz": "America/New_York",
   "products": [
    "predictions"
   ],
   "predType": "S",
   "refId": "8452660"
  },
  {
   "id": "8453662",
   "name": "Providence Visibility",
   "state": "RI",
   "lat": 41.78569,
   "lon": -71.38308,
   "tz": "America/New_York",
   "products": [
    "wind",
    "air_temperature",
    "air_pressure"
   ],
   "predType": null,
   "refId": null
  },
  {
   "id": "8453742",
   "name": "West Jamestown, Dutch Island Harbor",
   "state": "RI",
   "lat": 41.4967,
   "lon": -71.3867,
   "tz": "America/New_York",
   "products": [
    "predictions"
   ],
   "predType": "R",
   "refId": null
  },
  {
   "id": "8453767",
   "name": "Pawtuxet, Pawtuxet Cove",
   "state": "RI",
   "lat": 41.7617,
   "lon": -71.3883,
   "tz": "America/New_York",
   "products": [
    "predictions"
   ],
   "predType": "R",
   "refId": null
  },
  {
   "id": "8453999",
   "name": "Beavertail Point",
   "state": "RI",
   "lat": 41.4517,
   "lon": -71.4017,
   "tz": "America/New_York",
   "products": [
    "predictions"
   ],
   "predType": "S",
   "refId": "8452660"
  },
  {
   "id": "8454000",
   "name": "Providence, State Pier no.1",
   "state": "RI",
   "lat": 41.80717,
   "lon": -71.40067,
   "tz": "America/New_York",
   "products": [
    "predictions",
    "water_level",
    "water_temperature",
    "wind",
    "air_temperature",
    "air_pressure"
   ],
   "predType": "R",
   "refId": null
  },
  {
   "id": "8454049",
   "name": "Quonset Point",
   "state": "RI",
   "lat": 41.5868,
   "lon": -71.411,
   "tz": "America/New_York",
   "products": [
    "predictions"
   ],
   "predType": "R",
   "refId": null
  },
  {
   "id": "8454123",
   "name": "Port of Davisville",
   "state": "RI",
   "lat": 41.61122,
   "lon": -71.41031,
   "tz": "America/New_York",
   "products": [
    "wind",
    "air_temperature",
    "air_pressure"
   ],
   "predType": null,
   "refId": null
  },
  {
   "id": "8454341",
   "name": "Watson Pier, Boston Neck",
   "state": "RI",
   "lat": 41.46,
   "lon": -71.4283,
   "tz": "America/New_York",
   "products": [
    "predictions"
   ],
   "predType": "S",
   "refId": "8452660"
  },
  {
   "id": "8454538",
   "name": "Wickford",
   "state": "RI",
   "lat": 41.5717,
   "lon": -71.445,
   "tz": "America/New_York",
   "products": [
    "predictions"
   ],
   "predType": "R",
   "refId": null
  },
  {
   "id": "8454578",
   "name": "East Greenwich",
   "state": "RI",
   "lat": 41.665,
   "lon": -71.445,
   "tz": "America/New_York",
   "products": [
    "predictions"
   ],
   "predType": "R",
   "refId": null
  },
  {
   "id": "8454658",
   "name": "Narragansett Pier",
   "state": "RI",
   "lat": 41.4217,
   "lon": -71.455,
   "tz": "America/New_York",
   "products": [
    "predictions"
   ],
   "predType": "S",
   "refId": "8452660"
  },
  {
   "id": "8455083",
   "name": "Point Judith, Harbor of Refuge",
   "state": "RI",
   "lat": 41.3633,
   "lon": -71.49,
   "tz": "America/New_York",
   "products": [
    "predictions"
   ],
   "predType": "R",
   "refId": null
  },
  {
   "id": "8455137",
   "name": "KICKAMUIT RIVER",
   "state": "RI",
   "lat": 41.7078,
   "lon": -71.2417,
   "tz": "America/New_York",
   "products": [
    "predictions"
   ],
   "predType": "R",
   "refId": null
  },
  {
   "id": "8455189",
   "name": "Westerly, Pawcatuck River",
   "state": "RI",
   "lat": 41.3817,
   "lon": -71.8317,
   "tz": "America/New_York",
   "products": [
    "predictions"
   ],
   "predType": "S",
   "refId": "8461490"
  },
  {
   "id": "8458022",
   "name": "Weekapaug Point, Block Island Sound",
   "state": "RI",
   "lat": 41.3283,
   "lon": -71.7617,
   "tz": "America/New_York",
   "products": [
    "predictions"
   ],
   "predType": "R",
   "refId": null
  },
  {
   "id": "8458694",
   "name": "Watch Hill Point",
   "state": "RI",
   "lat": 41.305,
   "lon": -71.86,
   "tz": "America/New_York",
   "products": [
    "predictions"
   ],
   "predType": "S",
   "refId": "8452660"
  },
  {
   "id": "8459338",
   "name": "Block Island (Old Harbor)",
   "state": "RI",
   "lat": 41.1733,
   "lon": -71.5567,
   "tz": "America/New_York",
   "products": [
    "predictions"
   ],
   "predType": "R",
   "refId": null
  },
  {
   "id": "8459681",
   "name": "Southwest Point, Block Island",
   "state": "RI",
   "lat": 41.1633,
   "lon": -71.61,
   "tz": "America/New_York",
   "products": [
    "predictions"
   ],
   "predType": "R",
   "refId": null
  },
  {
   "id": "8460751",
   "name": "WEST MYSTIC, MYSTIC RIVER",
   "state": "CT",
   "lat": 41.3433,
   "lon": -71.975,
   "tz": "America/New_York",
   "products": [
    "predictions"
   ],
   "predType": "R",
   "refId": null
  },
  {
   "id": "8461392",
   "name": "Norwich",
   "state": "CT",
   "lat": 41.5233,
   "lon": -72.0783,
   "tz": "America/New_York",
   "products": [
    "predictions"
   ],
   "predType": "S",
   "refId": "8461490"
  },
  {
   "id": "8461467",
   "name": "Yale boathouse",
   "state": "CT",
   "lat": 41.43,
   "lon": -72.0933,
   "tz": "America/New_York",
   "products": [
    "predictions"
   ],
   "predType": "S",
   "refId": "8461490"
  },
  {
   "id": "8461490",
   "name": "NEW LONDON, State Pier",
   "state": "CT",
   "lat": 41.37167,
   "lon": -72.09556,
   "tz": "America/New_York",
   "products": [
    "predictions",
    "water_level",
    "water_temperature",
    "wind",
    "air_temperature",
    "air_pressure"
   ],
   "predType": "R",
   "refId": null
  },
  {
   "id": "8461925",
   "name": "Niantic, Niantic River",
   "state": "CT",
   "lat": 41.325,
   "lon": -72.1867,
   "tz": "America/New_York",
   "products": [
    "predictions"
   ],
   "predType": "S",
   "refId": "8461490"
  },
  {
   "id": "8462723",
   "name": "Saybrook Jetty",
   "state": "CT",
   "lat": 41.2633,
   "lon": -72.3433,
   "tz": "America/New_York",
   "products": [
    "predictions"
   ],
   "predType": "S",
   "refId": "8461490"
  },
  {
   "id": "8462752",
   "name": "Saybrook Point",
   "state": "CT",
   "lat": 41.2833,
   "lon": -72.35,
   "tz": "America/New_York",
   "products": [
    "predictions"
   ],
   "predType": "S",
   "refId": "8461490"
  },
  {
   "id": "8462764",
   "name": "Lyme, highway bridge",
   "state": "CT",
   "lat": 41.3217,
   "lon": -72.35,
   "tz": "America/New_York",
   "products": [
    "predictions"
   ],
   "predType": "S",
   "refId": "8461490"
  },
  {
   "id": "8462925",
   "name": "Essex",
   "state": "CT",
   "lat": 41.3483,
   "lon": -72.385,
   "tz": "America/New_York",
   "products": [
    "predictions"
   ],
   "predType": "S",
   "refId": "8461490"
  },
  {
   "id": "8463155",
   "name": "Hadlyme",
   "state": "CT",
   "lat": 41.42,
   "lon": -72.4283,
   "tz": "America/New_York",
   "products": [
    "predictions"
   ],
   "predType": "S",
   "refId": "8461490"
  },
  {
   "id": "8463348",
   "name": "Tylerville",
   "state": "CT",
   "lat": 41.4517,
   "lon": -72.465,
   "tz": "America/New_York",
   "products": [
    "predictions"
   ],
   "predType": "S",
   "refId": "8461490"
  },
  {
   "id": "8463409",
   "name": "Westbrook, Duck Island Roads",
   "state": "CT",
   "lat": 41.2733,
   "lon": -72.475,
   "tz": "America/New_York",
   "products": [
    "predictions"
   ],
   "predType": "S",
   "refId": "8467150"
  },
  {
   "id": "8463582",
   "name": "Haddam",
   "state": "CT",
   "lat": 41.4817,
   "lon": -72.5067,
   "tz": "America/New_York",
   "products": [
    "predictions"
   ],
   "predType": "S",
   "refId": "8461490"
  },
  {
   "id": "8463701",
   "name": "Clinton Harbor",
   "state": "CT",
   "lat": 41.2683,
   "lon": -72.5317,
   "tz": "America/New_York",
   "products": [
    "predictions"
   ],
   "predType": "R",
   "refId": null
  },
  {
   "id": "8463827",
   "name": "Maromas",
   "state": "CT",
   "lat": 41.5417,
   "lon": -72.5517,
   "tz": "America/New_York",
   "products": [
    "predictions"
   ],
   "predType": "S",
   "refId": "8461490"
  },
  {
   "id": "8463836",
   "name": "Higganum Creek",
   "state": "CT",
   "lat": 41.5033,
   "lon": -72.5533,
   "tz": "America/New_York",
   "products": [
    "predictions"
   ],
   "predType": "S",
   "refId": "8461490"
  },
  {
   "id": "8464041",
   "name": "Madison",
   "state": "CT",
   "lat": 41.27,
   "lon": -72.59,
   "tz": "America/New_York",
   "products": [
    "predictions"
   ],
   "predType": "S",
   "refId": "8467150"
  },
  {
   "id": "8464255",
   "name": "Rocky Hill",
   "state": "CT",
   "lat": 41.6633,
   "lon": -72.63,
   "tz": "America/New_York",
   "products": [
    "predictions"
   ],
   "predType": "S",
   "refId": "8461490"
  },
  {
   "id": "8464336",
   "name": "Middletown",
   "state": "CT",
   "lat": 41.56,
   "lon": -72.645,
   "tz": "America/New_York",
   "products": [
    "predictions"
   ],
   "predType": "S",
   "refId": "8461490"
  },
  {
   "id": "8464418",
   "name": "South Hartford",
   "state": "CT",
   "lat": 41.755,
   "lon": -72.6583,
   "tz": "America/New_York",
   "products": [
    "predictions"
   ],
   "predType": "S",
   "refId": "8461490"
  },
  {
   "id": "8464445",
   "name": "Guilford Harbor",
   "state": "CT",
   "lat": 41.2717,
   "lon": -72.6667,
   "tz": "America/New_York",
   "products": [
    "predictions"
   ],
   "predType": "S",
   "refId": "8467150"
  },
  {
   "id": "8464464",
   "name": "Hartford",
   "state": "CT",
   "lat": 41.77,
   "lon": -72.6683,
   "tz": "America/New_York",
   "products": [
    "predictions"
   ],
   "predType": "S",
   "refId": "8461490"
  },
  {
   "id": "8464687",
   "name": "Sachem Head",
   "state": "CT",
   "lat": 41.245,
   "lon": -72.7083,
   "tz": "America/New_York",
   "products": [
    "predictions"
   ],
   "predType": "S",
   "refId": "8467150"
  },
  {
   "id": "8465233",
   "name": "Branford, Branford River",
   "state": "CT",
   "lat": 41.2617,
   "lon": -72.8183,
   "tz": "America/New_York",
   "products": [
    "predictions"
   ],
   "predType": "S",
   "refId": "8467150"
  },
  {
   "id": "8465692",
   "name": "Lighthouse Point, New Haven Harbor",
   "state": "CT",
   "lat": 41.2517,
   "lon": -72.905,
   "tz": "America/New_York",
   "products": [
    "predictions"
   ],
   "predType": "S",
   "refId": "8467150"
  },
  {
   "id": "8465705",
   "name": "New Haven Harbor, New Haven Reach",
   "state": "CT",
   "lat": 41.2833,
   "lon": -72.9083,
   "tz": "America/New_York",
   "products": [
    "predictions",
    "water_level",
    "water_temperature",
    "wind",
    "air_temperature",
    "air_pressure"
   ],
   "predType": "R",
   "refId": null
  },
  {
   "id": "8466375",
   "name": "Gulf Beach",
   "state": "CT",
   "lat": 41.205,
   "lon": -73.0417,
   "tz": "America/New_York",
   "products": [
    "predictions"
   ],
   "predType": "S",
   "refId": "8467150"
  },
  {
   "id": "8466442",
   "name": "Milford Harbor",
   "state": "CT",
   "lat": 41.2183,
   "lon": -73.055,
   "tz": "America/New_York",
   "products": [
    "predictions"
   ],
   "predType": "S",
   "refId": "8467150"
  },
  {
   "id": "8466573",
   "name": "Shelton",
   "state": "CT",
   "lat": 41.3017,
   "lon": -73.0717,
   "tz": "America/New_York",
   "products": [
    "predictions"
   ],
   "predType": "S",
   "refId": "8467150"
  },
  {
   "id": "8466664",
   "name": "Long Hill",
   "state": "CT",
   "lat": 41.275,
   "lon": -73.0883,
   "tz": "America/New_York",
   "products": [
    "predictions"
   ],
   "predType": "S",
   "refId": "8467150"
  },
  {
   "id": "8466791",
   "name": "Sniffens Point",
   "state": "CT",
   "lat": 41.1867,
   "lon": -73.1133,
   "tz": "America/New_York",
   "products": [
    "predictions"
   ],
   "predType": "S",
   "refId": "8467150"
  },
  {
   "id": "8466797",
   "name": "Stratford, I-95 bridge",
   "state": "CT",
   "lat": 41.2033,
   "lon": -73.1117,
   "tz": "America/New_York",
   "products": [
    "predictions"
   ],
   "predType": "S",
   "refId": "8467150"
  },
  {
   "id": "8467150",
   "name": "BRIDGEPORT",
   "state": "CT",
   "lat": 41.17582,
   "lon": -73.18397,
   "tz": "America/New_York",
   "products": [
    "predictions",
    "water_level",
    "water_temperature",
    "wind",
    "air_temperature",
    "air_pressure"
   ],
   "predType": "R",
   "refId": null
  },
  {
   "id": "8467373",
   "name": "Black Rock Harbor",
   "state": "CT",
   "lat": 41.1567,
   "lon": -73.2133,
   "tz": "America/New_York",
   "products": [
    "predictions"
   ],
   "predType": "R",
   "refId": null
  },
  {
   "id": "8467726",
   "name": "Southport, Southport Harbor",
   "state": "CT",
   "lat": 41.1333,
   "lon": -73.2833,
   "tz": "America/New_York",
   "products": [
    "predictions"
   ],
   "predType": "R",
   "refId": null
  },
  {
   "id": "8468191",
   "name": "SAUGATUCK, SAUGATUCK RIVER",
   "state": "CT",
   "lat": 41.12,
   "lon": -73.3683,
   "tz": "America/New_York",
   "products": [
    "predictions"
   ],
   "predType": "R",
   "refId": null
  },
  {
   "id": "8468448",
   "name": "South Norwalk",
   "state": "CT",
   "lat": 41.0967,
   "lon": -73.415,
   "tz": "America/New_York",
   "products": [
    "predictions"
   ],
   "predType": "R",
   "refId": null
  },
  {
   "id": "8468609",
   "name": "Rowayton, Fivemile River",
   "state": "CT",
   "lat": 41.065,
   "lon": -73.445,
   "tz": "America/New_York",
   "products": [
    "predictions"
   ],
   "predType": "S",
   "refId": "8467150"
  },
  {
   "id": "8468799",
   "name": "Long Neck Point",
   "state": "CT",
   "lat": 41.0383,
   "lon": -73.48,
   "tz": "America/New_York",
   "products": [
    "predictions"
   ],
   "predType": "R",
   "refId": null
  },
  {
   "id": "8469198",
   "name": "Stamford",
   "state": "CT",
   "lat": 41.0383,
   "lon": -73.5467,
   "tz": "America/New_York",
   "products": [
    "predictions"
   ],
   "predType": "R",
   "refId": null
  },
  {
   "id": "8469549",
   "name": "Cos Cob Harbor",
   "state": "CT",
   "lat": 41.0167,
   "lon": -73.5967,
   "tz": "America/New_York",
   "products": [
    "predictions"
   ],
   "predType": "S",
   "refId": "8467150"
  },
  {
   "id": "8510448",
   "name": "Lake Montauk",
   "state": "NY",
   "lat": 41.0733,
   "lon": -71.935,
   "tz": "America/New_York",
   "products": [
    "predictions"
   ],
   "predType": "R",
   "refId": null
  },
  {
   "id": "8510502",
   "name": "Montauk Harbor entrance",
   "state": "NY",
   "lat": 41.075,
   "lon": -71.9367,
   "tz": "America/New_York",
   "products": [
    "predictions"
   ],
   "predType": "S",
   "refId": "8461490"
  },
  {
   "id": "8510560",
   "name": "Montauk, Fort Pond Bay",
   "state": "NY",
   "lat": 41.04833,
   "lon": -71.95944,
   "tz": "America/New_York",
   "products": [
    "predictions",
    "water_level",
    "water_temperature",
    "wind",
    "air_temperature",
    "air_pressure"
   ],
   "predType": "R",
   "refId": null
  },
  {
   "id": "8510719",
   "name": "Silver Eel Pond, Fishers Island, N.Y.",
   "state": "NY",
   "lat": 41.2567,
   "lon": -72.03,
   "tz": "America/New_York",
   "products": [
    "predictions"
   ],
   "predType": "R",
   "refId": null
  },
  {
   "id": "8510884",
   "name": "Little Gull Island",
   "state": "NY",
   "lat": 41.2067,
   "lon": -72.1017,
   "tz": "America/New_York",
   "products": [
    "predictions"
   ],
   "predType": "S",
   "refId": "8461490"
  },
  {
   "id": "8511171",
   "name": "Threemile Harbor entrance, Gardiners Bay",
   "state": "NY",
   "lat": 41.035,
   "lon": -72.19,
   "tz": "America/New_York",
   "products": [
    "predictions"
   ],
   "predType": "S",
   "refId": "8461490"
  },
  {
   "id": "8511236",
   "name": "Plum Gut Harbor, Plum Island",
   "state": "NY",
   "lat": 41.1717,
   "lon": -72.205,
   "tz": "America/New_York",
   "products": [
    "predictions"
   ],
   "predType": "R",
   "refId": null
  },
  {
   "id": "8511629",
   "name": "Sag Harbor",
   "state": "NY",
   "lat": 41.0033,
   "lon": -72.2967,
   "tz": "America/New_York",
   "products": [
    "predictions"
   ],
   "predType": "R",
   "refId": null
  },
  {
   "id": "8511671",
   "name": "Orient",
   "state": "NY",
   "lat": 41.1367,
   "lon": -72.3067,
   "tz": "America/New_York",
   "products": [
    "predictions"
   ],
   "predType": "R",
   "refId": null
  },
  {
   "id": "8511779",
   "name": "Noyack Bay",
   "state": "NY",
   "lat": 40.995,
   "lon": -72.3317,
   "tz": "America/New_York",
   "products": [
    "predictions"
   ],
   "predType": "S",
   "refId": "8461490"
  },
  {
   "id": "8511907",
   "name": "Greenport",
   "state": "NY",
   "lat": 41.101,
   "lon": -72.36117,
   "tz": "America/New_York",
   "products": [
    "predictions"
   ],
   "predType": "R",
   "refId": null
  },
  {
   "id": "8512053",
   "name": "Hashamomuck Beach",
   "state": "NY",
   "lat": 41.095,
   "lon": -72.3983,
   "tz": "America/New_York",
   "products": [
    "predictions"
   ],
   "predType": "S",
   "refId": "8467150"
  },
  {
   "id": "8512114",
   "name": "Southold",
   "state": "NY",
   "lat": 41.06,
   "lon": -72.4133,
   "tz": "America/New_York",
   "products": [
    "predictions"
   ],
   "predType": "S",
   "refId": "8461490"
  },
  {
   "id": "8512328",
   "name": "New Suffolk",
   "state": "NY",
   "lat": 40.9917,
   "lon": -72.4717,
   "tz": "America/New_York",
   "products": [
    "predictions"
   ],
   "predType": "S",
   "refId": "8461490"
  },
  {
   "id": "8512354",
   "name": "Shinnecock Inlet (ocean)",
   "state": "NY",
   "lat": 40.8367,
   "lon": -72.48,
   "tz": "America/New_York",
   "products": [
    "predictions"
   ],
   "predType": "R",
   "refId": null
  },
  {
   "id": "8512451",
   "name": "Ponquoque Point",
   "state": "NY",
   "lat": 40.85,
   "lon": -72.5033,
   "tz": "America/New_York",
   "products": [
    "predictions"
   ],
   "predType": "R",
   "refId": null
  },
  {
   "id": "8512668",
   "name": "Mattituck Inlet",
   "state": "NY",
   "lat": 41.015,
   "lon": -72.5617,
   "tz": "America/New_York",
   "products": [
    "predictions"
   ],
   "predType": "R",
   "refId": null
  },
  {
   "id": "8512671",
   "name": "Shinnecock Bay entrance",
   "state": "NY",
   "lat": 40.82,
   "lon": -72.5617,
   "tz": "America/New_York",
   "products": [
    "predictions"
   ],
   "predType": "S",
   "refId": "8531680"
  },
  {
   "id": "8512735",
   "name": "South Jamesport",
   "state": "NY",
   "lat": 40.935,
   "lon": -72.5817,
   "tz": "America/New_York",
   "products": [
    "predictions"
   ],
   "predType": "R",
   "refId": null
  },
  {
   "id": "8512769",
   "name": "Shinnecock Yacht Club, Penniman Creek",
   "state": "NY",
   "lat": 40.81856,
   "lon": -72.58661,
   "tz": "America/New_York",
   "products": [
    "predictions"
   ],
   "predType": "R",
   "refId": null
  },
  {
   "id": "8512987",
   "name": "Northville",
   "state": "NY",
   "lat": 40.9817,
   "lon": -72.645,
   "tz": "America/New_York",
   "products": [
    "predictions"
   ],
   "predType": "R",
   "refId": null
  },
  {
   "id": "8513388",
   "name": "Moriches Coast Guard Station",
   "state": "NY",
   "lat": 40.7867,
   "lon": -72.75,
   "tz": "America/New_York",
   "products": [
    "predictions"
   ],
   "predType": "R",
   "refId": null
  },
  {
   "id": "8513398",
   "name": "Moriches Inlet",
   "state": "NY",
   "lat": 40.76442,
   "lon": -72.75597,
   "tz": "America/New_York",
   "products": [
    "predictions"
   ],
   "predType": "R",
   "refId": null
  },
  {
   "id": "8513825",
   "name": "Smith Point Bridge, Narrow Bay",
   "state": "NY",
   "lat": 40.7383,
   "lon": -72.8683,
   "tz": "America/New_York",
   "products": [
    "predictions"
   ],
   "predType": "R",
   "refId": null
  },
  {
   "id": "8514322",
   "name": "Patchogue",
   "state": "NY",
   "lat": 40.75,
   "lon": -73,
   "tz": "America/New_York",
   "products": [
    "predictions"
   ],
   "predType": "R",
   "refId": null
  },
  {
   "id": "8514421",
   "name": "Mount Sinai Harbor",
   "state": "NY",
   "lat": 40.9633,
   "lon": -73.04,
   "tz": "America/New_York",
   "products": [
    "predictions"
   ],
   "predType": "S",
   "refId": "8467150"
  },
  {
   "id": "8514422",
   "name": "Cedar Beach",
   "state": "NY",
   "lat": 40.965,
   "lon": -73.0433,
   "tz": "America/New_York",
   "products": [
    "predictions"
   ],
   "predType": "R",
   "refId": null
  },
  {
   "id": "8514560",
   "name": "Port Jefferson",
   "state": "NY",
   "lat": 40.95,
   "lon": -73.0767,
   "tz": "America/New_York",
   "products": [
    "predictions"
   ],
   "predType": "R",
   "refId": null
  },
  {
   "id": "8514594",
   "name": "Port Jefferson Harbor entrance",
   "state": "NY",
   "lat": 40.9717,
   "lon": -73.0917,
   "tz": "America/New_York",
   "products": [
    "predictions"
   ],
   "predType": "S",
   "refId": "8467150"
  },
  {
   "id": "8514779",
   "name": "Seaview Ferry Dock",
   "state": "NY",
   "lat": 40.64925,
   "lon": -73.15061,
   "tz": "America/New_York",
   "products": [
    "predictions"
   ],
   "predType": "R",
   "refId": null
  },
  {
   "id": "8514783",
   "name": "Great River, Connetquot River",
   "state": "NY",
   "lat": 40.7233,
   "lon": -73.1517,
   "tz": "America/New_York",
   "products": [
    "predictions"
   ],
   "predType": "S",
   "refId": "8531680"
  },
  {
   "id": "8514961",
   "name": "West Fire Island",
   "state": "NY",
   "lat": 40.6567,
   "lon": -73.205,
   "tz": "America/New_York",
   "products": [
    "predictions"
   ],
   "predType": "S",
   "refId": "8531680"
  },
  {
   "id": "8515014",
   "name": "Fire Island Light",
   "state": "NY",
   "lat": 40.635,
   "lon": -73.22,
   "tz": "America/New_York",
   "products": [
    "predictions"
   ],
   "predType": "S",
   "refId": "8531680"
  },
  {
   "id": "8515102",
   "name": "Bay Shore, Watchogue Creek Entrance",
   "state": "NY",
   "lat": 40.7167,
   "lon": -73.24,
   "tz": "America/New_York",
   "products": [
    "predictions"
   ],
   "predType": "S",
   "refId": "8531680"
  },
  {
   "id": "8515186",
   "name": "Fire Island Coast Guard Station",
   "state": "NY",
   "lat": 40.6267,
   "lon": -73.26,
   "tz": "America/New_York",
   "products": [
    "predictions"
   ],
   "predType": "R",
   "refId": null
  },
  {
   "id": "8515228",
   "name": "Democrat Point, Fire Island Inlet",
   "state": "NY",
   "lat": 40.6333,
   "lon": -73.2933,
   "tz": "America/New_York",
   "products": [
    "predictions"
   ],
   "predType": "S",
   "refId": "8531680"
  },
  {
   "id": "8515336",
   "name": "Oak Beach",
   "state": "NY",
   "lat": 40.64,
   "lon": -73.295,
   "tz": "America/New_York",
   "products": [
    "predictions"
   ],
   "predType": "S",
   "refId": "8531680"
  },
  {
   "id": "8515421",
   "name": "Babylon",
   "state": "NY",
   "lat": 40.685,
   "lon": -73.315,
   "tz": "America/New_York",
   "products": [
    "predictions"
   ],
   "predType": "S",
   "refId": "8531680"
  },
  {
   "id": "8515586",
   "name": "Northport, Northport Bay",
   "state": "NY",
   "lat": 40.9,
   "lon": -73.3533,
   "tz": "America/New_York",
   "products": [
    "predictions"
   ],
   "predType": "R",
   "refId": null
  },
  {
   "id": "8515764",
   "name": "Gilgo Heading",
   "state": "NY",
   "lat": 40.62,
   "lon": -73.395,
   "tz": "America/New_York",
   "products": [
    "predictions"
   ],
   "predType": "S",
   "refId": "8531680"
  },
  {
   "id": "8515786",
   "name": "Eatons Neck Point",
   "state": "NY",
   "lat": 40.9533,
   "lon": -73.4,
   "tz": "America/New_York",
   "products": [
    "predictions"
   ],
   "predType": "R",
   "refId": null
  },
  {
   "id": "8515864",
   "name": "Amityville",
   "state": "NY",
   "lat": 40.655,
   "lon": -73.4183,
   "tz": "America/New_York",
   "products": [
    "predictions"
   ],
   "predType": "S",
   "refId": "8531680"
  },
  {
   "id": "8515921",
   "name": "Lloyd Harbor, Huntington Bay",
   "state": "NY",
   "lat": 40.91,
   "lon": -73.4317,
   "tz": "America/New_York",
   "products": [
    "predictions"
   ],
   "predType": "R",
   "refId": null
  },
  {
   "id": "8516055",
   "name": "Biltmore Shores, South Oyster Bay",
   "state": "NY",
   "lat": 40.6667,
   "lon": -73.4683,
   "tz": "America/New_York",
   "products": [
    "predictions"
   ],
   "predType": "S",
   "refId": "8531680"
  },
  {
   "id": "8516061",
   "name": "Cold Spring Harbor",
   "state": "NY",
   "lat": 40.8733,
   "lon": -73.47,
   "tz": "America/New_York",
   "products": [
    "predictions"
   ],
   "predType": "R",
   "refId": null
  },
  {
   "id": "8516155",
   "name": "Green Island",
   "state": "NY",
   "lat": 40.6233,
   "lon": -73.5017,
   "tz": "America/New_York",
   "products": [
    "predictions"
   ],
   "predType": "R",
   "refId": null
  },
  {
   "id": "8516201",
   "name": "Oyster Bay Harbor",
   "state": "NY",
   "lat": 40.8667,
   "lon": -73.5167,
   "tz": "America/New_York",
   "products": [
    "predictions"
   ],
   "predType": "S",
   "refId": "8467150"
  },
  {
   "id": "8516211",
   "name": "Bellmore, Bellmore Creek",
   "state": "NY",
   "lat": 40.6633,
   "lon": -73.52,
   "tz": "America/New_York",
   "products": [
    "predictions"
   ],
   "predType": "S",
   "refId": "8531680"
  },
  {
   "id": "8516221",
   "name": "Cuba Island",
   "state": "NY",
   "lat": 40.62,
   "lon": -73.5233,
   "tz": "America/New_York",
   "products": [
    "predictions"
   ],
   "predType": "S",
   "refId": "8531680"
  },
  {
   "id": "8516225",
   "name": "Deep Creek Meadow",
   "state": "NY",
   "lat": 40.6033,
   "lon": -73.525,
   "tz": "America/New_York",
   "products": [
    "predictions"
   ],
   "predType": "S",
   "refId": "8531680"
  },
  {
   "id": "8516299",
   "name": "Bayville Bridge",
   "state": "NY",
   "lat": 40.9033,
   "lon": -73.55,
   "tz": "America/New_York",
   "products": [
    "predictions"
   ],
   "predType": "R",
   "refId": null
  },
  {
   "id": "8516315",
   "name": "Neds Creek",
   "state": "NY",
   "lat": 40.6233,
   "lon": -73.555,
   "tz": "America/New_York",
   "products": [
    "predictions"
   ],
   "predType": "S",
   "refId": "8531680"
  },
  {
   "id": "8516385",
   "name": "Jones Inlet (Point Lookout)",
   "state": "NY",
   "lat": 40.5867,
   "lon": -73.5783,
   "tz": "America/New_York",
   "products": [
    "predictions"
   ],
   "predType": "S",
   "refId": "8531680"
  },
  {
   "id": "8516402",
   "name": "Point Lookout (marina), Jones Inlet",
   "state": "NY",
   "lat": 40.59389,
   "lon": -73.58397,
   "tz": "America/New_York",
   "products": [
    "predictions"
   ],
   "predType": "R",
   "refId": null
  },
  {
   "id": "8516411",
   "name": "Freeport, Baldwin Bay",
   "state": "NY",
   "lat": 40.6333,
   "lon": -73.5867,
   "tz": "America/New_York",
   "products": [
    "predictions"
   ],
   "predType": "S",
   "refId": "8531680"
  },
  {
   "id": "8516501",
   "name": "Baldwin, Parsonage Cove, Hempstead Bay",
   "state": "NY",
   "lat": 40.6333,
   "lon": -73.6167,
   "tz": "America/New_York",
   "products": [
    "predictions"
   ],
   "predType": "R",
   "refId": null
  },
  {
   "id": "8516601",
   "name": "Long Beach (Inside)",
   "state": "NY",
   "lat": 40.6,
   "lon": -73.65,
   "tz": "America/New_York",
   "products": [
    "predictions"
   ],
   "predType": "S",
   "refId": "8531680"
  },
  {
   "id": "8516607",
   "name": "Harry Tappen Marina, Hempstead Harbor",
   "state": "NY",
   "lat": 40.83461,
   "lon": -73.65242,
   "tz": "America/New_York",
   "products": [
    "predictions"
   ],
   "predType": "R",
   "refId": null
  },
  {
   "id": "8516614",
   "name": "Glen Cove, Hempstead Harbor",
   "state": "NY",
   "lat": 40.8633,
   "lon": -73.655,
   "tz": "America/New_York",
   "products": [
    "predictions"
   ],
   "predType": "R",
   "refId": null
  },
  {
   "id": "8516661",
   "name": "Bay Park, Hewlett Bay",
   "state": "NY",
   "lat": 40.63,
   "lon": -73.67,
   "tz": "America/New_York",
   "products": [
    "predictions"
   ],
   "predType": "R",
   "refId": null
  },
  {
   "id": "8516663",
   "name": "Long Beach, Bridgewater Yacht Club, New York",
   "state": "NY",
   "lat": 40.59633,
   "lon": -73.65508,
   "tz": "America/New_York",
   "products": [
    "predictions"
   ],
   "predType": "R",
   "refId": null
  },
  {
   "id": "8516745",
   "name": "Woodmere, Brosewere Bay",
   "state": "NY",
   "lat": 40.62,
   "lon": -73.6983,
   "tz": "America/New_York",
   "products": [
    "predictions"
   ],
   "predType": "S",
   "refId": "8531680"
  },
  {
   "id": "8516761",
   "name": "Port Washington, Manhasset Bay",
   "state": "NY",
   "lat": 40.8317,
   "lon": -73.7033,
   "tz": "America/New_York",
   "products": [
    "predictions"
   ],
   "predType": "R",
   "refId": null
  },
  {
   "id": "8516881",
   "name": "East Rockaway Inlet, Atlantic Beach",
   "state": "NY",
   "lat": 40.595,
   "lon": -73.7433,
   "tz": "America/New_York",
   "products": [
    "predictions"
   ],
   "predType": "R",
   "refId": null
  },
  {
   "id": "8516891",
   "name": "Norton Point, Head of Bay",
   "state": "NY",
   "lat": 40.635,
   "lon": -73.7467,
   "tz": "America/New_York",
   "products": [
    "predictions"
   ],
   "predType": "R",
   "refId": null
  },
  {
   "id": "8516925",
   "name": "Motts Basin",
   "state": "NY",
   "lat": 40.6167,
   "lon": -73.7583,
   "tz": "America/New_York",
   "products": [
    "predictions"
   ],
   "predType": "S",
   "refId": "8531680"
  },
  {
   "id": "8516945",
   "name": "Kings Point",
   "state": "NY",
   "lat": 40.8103,
   "lon": -73.7649,
   "tz": "America/New_York",
   "products": [
    "predictions",
    "water_level",
    "water_temperature",
    "wind",
    "air_temperature",
    "air_pressure"
   ],
   "predType": "R",
   "refId": null
  },
  {
   "id": "8516990",
   "name": "Willets Point",
   "state": "NY",
   "lat": 40.7933,
   "lon": -73.7817,
   "tz": "America/New_York",
   "products": [
    "predictions"
   ],
   "predType": "R",
   "refId": null
  },
  {
   "id": "8516999",
   "name": "J.F.K. International Airport",
   "state": "NY",
   "lat": 40.6233,
   "lon": -73.7833,
   "tz": "America/New_York",
   "products": [
    "predictions"
   ],
   "predType": "S",
   "refId": "8531680"
  },
  {
   "id": "8517125",
   "name": "Whitestone",
   "state": "NY",
   "lat": 40.7983,
   "lon": -73.8133,
   "tz": "America/New_York",
   "products": [
    "predictions"
   ],
   "predType": "S",
   "refId": "8516945"
  },
  {
   "id": "8517137",
   "name": "Beach Channel (bridge)",
   "state": "NY",
   "lat": 40.5883,
   "lon": -73.82,
   "tz": "America/New_York",
   "products": [
    "predictions"
   ],
   "predType": "R",
   "refId": null
  },